pincode,city,canton,canton_code,country,country_code,long,lat
1000,Lausanne,Waadt,VD,Schweiz,CH,6.65230780339362,46.552043140147
1003,Lausanne,Waadt,VD,Schweiz,CH,6.65230780339362,46.552043140147
1004,Lausanne,Waadt,VD,Schweiz,CH,6.63233,46.519595
1005,Lausanne,Waadt,VD,Schweiz,CH,6.63233,46.519595
1006,Lausanne,Waadt,VD,Schweiz,CH,6.63233,46.519595
1007,Lausanne,Waadt,VD,Schweiz,CH,6.63233,46.519595
1008,Jouxtens-Mézery,Waadt,VD,Schweiz,CH,6.60497356930366,46.538895722939
1008,Prilly,Waadt,VD,Schweiz,CH,6.60497356930366,46.538895722939
1009,Pully,Waadt,VD,Schweiz,CH,6.6694964862187,46.5215381652756
1010,Lausanne,Waadt,VD,Schweiz,CH,6.65230780339362,46.552043140147
1011,Lausanne,Waadt,VD,Schweiz,CH,6.64295,46.525429
1012,Lausanne,Waadt,VD,Schweiz,CH,6.65689,46.52631
1015,Lausanne,Waadt,VD,Schweiz,CH,6.65230780339362,46.552043140147
1018,Lausanne,Waadt,VD,Schweiz,CH,6.65230780339362,46.552043140147
1020,Renens VD,Waadt,VD,Schweiz,CH,6.593655,46.535299
1022,Chavannes-près-Renens,Waadt,VD,Schweiz,CH,6.573672,46.527979
1023,Crissier,Waadt,VD,Schweiz,CH,6.57730913751229,46.558481097055
1024,Ecublens VD,Waadt,VD,Schweiz,CH,6.550683,46.52719
1025,St-Sulpice VD,Waadt,VD,Schweiz,CH,6.539072,46.512148
1026,Denges,Waadt,VD,Schweiz,CH,6.533801,46.519399
1026,Echandens,Waadt,VD,Schweiz,CH,6.533801,46.519399
1027,Lonay,Waadt,VD,Schweiz,CH,6.51693391169977,46.5298679426138
1028,Préverenges,Waadt,VD,Schweiz,CH,6.52900182742497,46.5160569758762
1029,Villars-Ste-Croix,Waadt,VD,Schweiz,CH,6.560968,46.565837
1030,Bussigny-près-Lausanne,Waadt,VD,Schweiz,CH,6.550058,46.552254
1031,Mex VD,Waadt,VD,Schweiz,CH,6.543879,46.572937
1032,Romanel-sur-Lausanne,Waadt,VD,Schweiz,CH,6.608509,46.560792
1033,Cheseaux-sur-Lausanne,Waadt,VD,Schweiz,CH,6.594388,46.578149
1034,Boussens,Waadt,VD,Schweiz,CH,6.581737,46.598316
1035,Bournens,Waadt,VD,Schweiz,CH,6.563911,46.608669
1036,Sullens,Waadt,VD,Schweiz,CH,6.566006,46.589389
1037,Etagnières,Waadt,VD,Schweiz,CH,6.60850460669533,46.6014263269581
1038,Bercher,Waadt,VD,Schweiz,CH,6.70620337607016,46.6916420621001
1040,St-Barthélemy VD,Waadt,VD,Schweiz,CH,6.63519870459282,46.6384565080171
1040,Villars-le-Terroir,Waadt,VD,Schweiz,CH,6.63519870459282,46.6384565080171
1040,Echallens,Waadt,VD,Schweiz,CH,6.63519870459282,46.6384565080171
1041,Dommartin,Waadt,VD,Schweiz,CH,6.693623,46.612293
1041,Poliez-Pittet,Waadt,VD,Schweiz,CH,6.693623,46.612293
1041,Bottens,Waadt,VD,Schweiz,CH,6.693623,46.612293
1041,Naz,Waadt,VD,Schweiz,CH,6.693623,46.612293
1041,Montaubion-Chardonney,Waadt,VD,Schweiz,CH,6.693623,46.612293
1041,Poliez-le-Grand,Waadt,VD,Schweiz,CH,6.693623,46.612293
1042,Bettens,Waadt,VD,Schweiz,CH,6.57485614217164,46.6241881123857
1042,Bioley-Orjulaz,Waadt,VD,Schweiz,CH,6.57485614217164,46.6241881123857
1042,Assens,Waadt,VD,Schweiz,CH,6.57485614217164,46.6241881123857
1043,Sugnens,Waadt,VD,Schweiz,CH,6.671968,46.651148
1044,Fey,Waadt,VD,Schweiz,CH,6.678434,46.672851
1045,Ogens,Waadt,VD,Schweiz,CH,6.719208,46.705933
1046,Rueyres,Waadt,VD,Schweiz,CH,#NV,#NV
1047,Oppens,Waadt,VD,Schweiz,CH,#NV,#NV
1052,Le Mont-sur-Lausanne,Waadt,VD,Schweiz,CH,6.640144,46.554765
1053,Bretigny-sur-Morrens,Waadt,VD,Schweiz,CH,6.640643,46.596563
1053,Cugy VD,Waadt,VD,Schweiz,CH,6.640643,46.596563
1054,Morrens VD,Waadt,VD,Schweiz,CH,6.585893,46.589857
1055,Froideville,Waadt,VD,Schweiz,CH,6.69172374704326,46.598179246874
1058,Villars-Tiercelin,Waadt,VD,Schweiz,CH,6.705818,46.618599
1059,Peney-le-Jorat,Waadt,VD,Schweiz,CH,6.730512,46.624096
1061,Villars-Mendraz,Waadt,VD,Schweiz,CH,6.726124,46.643529
1062,Sottens,Waadt,VD,Schweiz,CH,6.738431,46.652751
1063,Peyres-Possens,Waadt,VD,Schweiz,CH,6.753676,46.660073
1063,Boulens,Waadt,VD,Schweiz,CH,6.753676,46.660073
1063,Chapelle-sur-Moudon,Waadt,VD,Schweiz,CH,6.753676,46.660073
1063,Martherenges,Waadt,VD,Schweiz,CH,6.753676,46.660073
1066,Epalinges,Waadt,VD,Schweiz,CH,6.66843244272799,46.5507140723537
1068,Les Monts-de-Pully,Waadt,VD,Schweiz,CH,6.689425,46.536285
1070,Puidoux,Waadt,VD,Schweiz,CH,6.784104,46.508573
1071,Rivaz,Waadt,VD,Schweiz,CH,6.78002632456814,46.484323238058
1071,St-Saphorin (Lavaux),Waadt,VD,Schweiz,CH,6.78002632456814,46.484323238058
1071,Chexbres,Waadt,VD,Schweiz,CH,6.78002632456814,46.484323238058
1072,Forel (Lavaux),Waadt,VD,Schweiz,CH,6.76284876342447,46.5378921286542
1073,Mollie-Margot,Waadt,VD,Schweiz,CH,6.72700883322297,46.5488915167195
1073,Savigny,Waadt,VD,Schweiz,CH,6.72700883322297,46.5488915167195
1076,Ferlens VD,Waadt,VD,Schweiz,CH,6.74403,46.585676
1077,Servion,Waadt,VD,Schweiz,CH,6.776623,46.573372
1078,Essertes,Waadt,VD,Schweiz,CH,6.785426,46.561225
1080,Les Cullayes,Waadt,VD,Schweiz,CH,6.754425,46.568218
1081,Montpreveyres,Waadt,VD,Schweiz,CH,6.73056461896456,46.5812991179422
1082,Corcelles-le-Jorat,Waadt,VD,Schweiz,CH,6.730338,46.600963
1083,Mézières VD,Waadt,VD,Schweiz,CH,6.760865,46.586341
1084,Carrouge VD,Waadt,VD,Schweiz,CH,6.766514,46.599449
1085,Vulliens,Waadt,VD,Schweiz,CH,6.793369,46.622192
1088,Ropraz,Waadt,VD,Schweiz,CH,6.752623,46.613243
1090,La Croix (Lutry),Waadt,VD,Schweiz,CH,6.702551,46.516119
1091,Aran,Waadt,VD,Schweiz,CH,6.72197401679348,46.5033672844292
1091,Chenaux,Waadt,VD,Schweiz,CH,6.72197401679348,46.5033672844292
1091,Grandvaux,Waadt,VD,Schweiz,CH,6.72197401679348,46.5033672844292
1092,Belmont-sur-Lausanne,Waadt,VD,Schweiz,CH,6.687281,46.526863
1093,La Conversion,Waadt,VD,Schweiz,CH,6.677415,46.513315
1094,Paudex,Waadt,VD,Schweiz,CH,6.67363020733127,46.5083868703541
1095,Lutry,Waadt,VD,Schweiz,CH,6.6989619621992,46.5150856026857
1096,Villette (Lavaux),Waadt,VD,Schweiz,CH,6.73169732791845,46.4990651236307
1096,Cully,Waadt,VD,Schweiz,CH,6.73169732791845,46.4990651236307
1097,Riex,Waadt,VD,Schweiz,CH,6.733847,46.500392
1098,Epesses,Waadt,VD,Schweiz,CH,6.746229,46.495067
1110,Morges,Waadt,VD,Schweiz,CH,6.49313060226246,46.5140100808796
1112,Echichens,Waadt,VD,Schweiz,CH,6.493396,46.526924
1113,St-Saphorin-sur-Morges,Waadt,VD,Schweiz,CH,6.490415,46.546192
1114,Colombier VD,Waadt,VD,Schweiz,CH,6.461996,46.55421
1115,Vullierens,Waadt,VD,Schweiz,CH,6.477375,46.573068
1116,Cottens VD,Waadt,VD,Schweiz,CH,6.453207,46.572465
1117,Grancy,Waadt,VD,Schweiz,CH,6.463387,46.593785
1121,Bremblens,Waadt,VD,Schweiz,CH,6.518788,46.543998
1122,Romanel-sur-Morges,Waadt,VD,Schweiz,CH,6.508911,46.55617
1123,Aclens,Waadt,VD,Schweiz,CH,6.51084300482388,46.5682592477097
1124,Gollion,Waadt,VD,Schweiz,CH,6.511818,46.585151
1125,Monnaz,Waadt,VD,Schweiz,CH,6.474588,46.53191
1126,Vaux-sur-Morges,Waadt,VD,Schweiz,CH,6.463538,46.530833
1127,Clarmont,Waadt,VD,Schweiz,CH,6.445828,46.545933
1128,Reverolle,Waadt,VD,Schweiz,CH,6.43971,46.538109
1131,Tolochenaz,Waadt,VD,Schweiz,CH,6.47717516706501,46.5016323518493
1132,Lully VD,Waadt,VD,Schweiz,CH,6.443697,46.500568
1134,Vufflens-le-Château,Waadt,VD,Schweiz,CH,6.473592,46.513821
1134,Chigny,Waadt,VD,Schweiz,CH,6.473592,46.513821
1135,Denens,Waadt,VD,Schweiz,CH,6.452254,46.515855
1136,Bussy-Chardonney,Waadt,VD,Schweiz,CH,6.440662,46.528814
1141,Sévery,Waadt,VD,Schweiz,CH,6.440116,46.568625
1142,Pampigny,Waadt,VD,Schweiz,CH,6.42197529099297,46.5862394758871
1143,Apples,Waadt,VD,Schweiz,CH,6.4165602352428,46.5549826875761
1144,Ballens,Waadt,VD,Schweiz,CH,6.377318,46.553149
1145,Bière,Waadt,VD,Schweiz,CH,6.31748532416811,46.5478240583637
1146,Mollens VD,Waadt,VD,Schweiz,CH,6.338158,46.577414
1147,Montricher,Waadt,VD,Schweiz,CH,6.369704,46.602411
1148,Cuarnens,Waadt,VD,Schweiz,CH,6.39314081616777,46.6244377827732
1148,Moiry VD,Waadt,VD,Schweiz,CH,6.39314081616777,46.6244377827732
1148,La Praz,Waadt,VD,Schweiz,CH,6.39314081616777,46.6244377827732
1148,Mont-la-Ville,Waadt,VD,Schweiz,CH,6.39314081616777,46.6244377827732
1148,Chavannes-le-Veyron,Waadt,VD,Schweiz,CH,6.39314081616777,46.6244377827732
1148,Mauraz,Waadt,VD,Schweiz,CH,6.39314081616777,46.6244377827732
1148,Villars-Bozon,Waadt,VD,Schweiz,CH,6.39314081616777,46.6244377827732
1148,La Coudre,Waadt,VD,Schweiz,CH,6.39314081616777,46.6244377827732
1148,L'Isle,Waadt,VD,Schweiz,CH,6.39314081616777,46.6244377827732
1149,Berolle,Waadt,VD,Schweiz,CH,6.326259,46.56536
1162,St-Prex,Waadt,VD,Schweiz,CH,6.447188,46.485439
1163,Etoy,Waadt,VD,Schweiz,CH,6.42174355257144,46.4842368500261
1164,Buchillon,Waadt,VD,Schweiz,CH,6.412819,46.465948
1165,Allaman,Waadt,VD,Schweiz,CH,6.393875,46.469439
1166,Perroy,Waadt,VD,Schweiz,CH,6.35902605436528,46.4701906343282
1167,Lussy-sur-Morges,Waadt,VD,Schweiz,CH,6.444645,46.49606
1168,Villars-sous-Yens,Waadt,VD,Schweiz,CH,6.426473,46.506377
1169,Yens,Waadt,VD,Schweiz,CH,6.409048,46.524228
1170,Aubonne,Waadt,VD,Schweiz,CH,6.38512120156374,46.4905785782122
1172,Bougy-Villars,Waadt,VD,Schweiz,CH,6.348935,46.483594
1173,Féchy,Waadt,VD,Schweiz,CH,6.37268814318596,46.4788122709737
1174,Montherod,Waadt,VD,Schweiz,CH,6.345857,46.491894
1174,Pizy,Waadt,VD,Schweiz,CH,6.345857,46.491894
1175,Lavigny,Waadt,VD,Schweiz,CH,6.403955,46.499284
1176,St-Livres,Waadt,VD,Schweiz,CH,6.381852,46.516695
1180,Tartegnin,Waadt,VD,Schweiz,CH,6.33155551964266,46.4575740790365
1180,Rolle,Waadt,VD,Schweiz,CH,6.33155551964266,46.4575740790365
1182,Gilly,Waadt,VD,Schweiz,CH,6.300124,46.457345
1183,Bursins,Waadt,VD,Schweiz,CH,6.28623086401773,46.4520312153342
1184,Vinzel,Waadt,VD,Schweiz,CH,6.269118,46.439446
1184,Luins,Waadt,VD,Schweiz,CH,6.269118,46.439446
1185,Mont-sur-Rolle,Waadt,VD,Schweiz,CH,6.33631301154752,46.475361429637
1186,Essertines-sur-Rolle,Waadt,VD,Schweiz,CH,6.315795,46.484656
1187,St-Oyens,Waadt,VD,Schweiz,CH,6.299171,46.494458
1188,Gimel,Waadt,VD,Schweiz,CH,6.28936975238462,46.5266805237043
1188,St-George,Waadt,VD,Schweiz,CH,6.28936975238462,46.5266805237043
1189,Saubraz,Waadt,VD,Schweiz,CH,6.324991,46.515617
1195,Dully,Waadt,VD,Schweiz,CH,6.289946,46.431822
1195,Bursinel,Waadt,VD,Schweiz,CH,6.289946,46.431822
1196,Gland,Waadt,VD,Schweiz,CH,6.27291159291984,46.419750448819
1197,Prangins,Waadt,VD,Schweiz,CH,6.25510759611637,46.4007092793397
1200,Genève,Genf,GE,Schweiz,CH,6.14139354018333,46.2057741319626
1201,Genève,Genf,GE,Schweiz,CH,6.14139354018333,46.2057741319626
1202,Genève,Genf,GE,Schweiz,CH,6.14139354018333,46.2057741319626
1203,Genève,Genf,GE,Schweiz,CH,6.14139354018333,46.2057741319626
1204,Genève,Genf,GE,Schweiz,CH,6.14139354018333,46.2057741319626
1205,Genève,Genf,GE,Schweiz,CH,6.14139354018333,46.2057741319626
1206,Genève,Genf,GE,Schweiz,CH,6.142701,46.208358
1207,Genève,Genf,GE,Schweiz,CH,6.14139354018333,46.2057741319626
1208,Genève,Genf,GE,Schweiz,CH,6.142701,46.208358
1209,Genève,Genf,GE,Schweiz,CH,6.14139354018333,46.2057741319626
1212,Grand-Lancy,Genf,GE,Schweiz,CH,6.1205,46.182809
1213,Petit-Lancy,Genf,GE,Schweiz,CH,6.103622,46.182532
1213,Onex,Genf,GE,Schweiz,CH,6.103622,46.182532
1214,Vernier,Genf,GE,Schweiz,CH,6.09444117376714,46.2107407870398
1215,Genève 15 Aéroport,Genf,GE,Schweiz,CH,6.14139354018333,46.2057741319626
1216,Cointrin,Genf,GE,Schweiz,CH,6.118059501,46.210896
1217,Meyrin,Genf,GE,Schweiz,CH,6.07887282625859,46.2322371435594
1218,Le Grand-Saconnex,Genf,GE,Schweiz,CH,6.118976671112,46.2357799785005
1219,Le Lignon,Genf,GE,Schweiz,CH,6.121878744,46.191968
1219,Aïre,Genf,GE,Schweiz,CH,6.121878744,46.191968
1219,Châtelaine,Genf,GE,Schweiz,CH,6.121878744,46.191968
1220,Les Avanchets,Genf,GE,Schweiz,CH,6.107849,46.221174
1222,Vésenaz,Genf,GE,Schweiz,CH,6.199607186,46.2314
1223,Cologny,Genf,GE,Schweiz,CH,6.18528333291534,46.2176499329417
1224,Chêne-Bougeries,Genf,GE,Schweiz,CH,6.18150264144466,46.1935598519842
1225,Chêne-Bourg,Genf,GE,Schweiz,CH,6.19682393443167,46.1973908245002
1226,Thônex,Genf,GE,Schweiz,CH,6.2044216350882,46.1960705480124
1227,Les Acacias,Genf,GE,Schweiz,CH,6.145072,46.180452
1227,Carouge GE,Genf,GE,Schweiz,CH,6.145072,46.180452
1228,Plan-les-Ouates,Genf,GE,Schweiz,CH,6.11884306401096,46.1639480587182
1231,Conches,Genf,GE,Schweiz,CH,6.17799,46.188855
1232,Confignon,Genf,GE,Schweiz,CH,6.08878886134379,46.1742362522699
1233,Bernex,Genf,GE,Schweiz,CH,6.06815054403417,46.1784682975984
1234,Vessy,Genf,GE,Schweiz,CH,6.15828,46.171975
1236,Cartigny,Genf,GE,Schweiz,CH,6.02879,46.177062
1237,Avully,Genf,GE,Schweiz,CH,5.99822843036848,46.167486156683
1239,Collex,Genf,GE,Schweiz,CH,6.117638,46.275893
1241,Puplinge,Genf,GE,Schweiz,CH,6.23198622516045,46.2108256286784
1242,Satigny,Genf,GE,Schweiz,CH,6.0365649897722,46.214077661298
1243,Presinge,Genf,GE,Schweiz,CH,6.259671,46.218979
1244,Choulex,Genf,GE,Schweiz,CH,6.221099,46.226117
1245,Collonge-Bellerive,Genf,GE,Schweiz,CH,5.937532,46.249268
1246,Corsier GE,Genf,GE,Schweiz,CH,6.213982,46.261396
1247,Anières,Genf,GE,Schweiz,CH,6.23305149911662,46.2746949288338
1248,Hermance,Genf,GE,Schweiz,CH,6.24455470973202,46.2935657796172
1251,Gy,Genf,GE,Schweiz,CH,6.267874,46.245581
1252,Meinier,Genf,GE,Schweiz,CH,6.23492581691813,46.2430107977754
1253,Vandoeuvres,Genf,GE,Schweiz,CH,6.20349408059513,46.2189748601472
1254,Jussy,Genf,GE,Schweiz,CH,6.278012,46.23967
1255,Veyrier,Genf,GE,Schweiz,CH,6.16666519943834,46.1716308936607
1256,Troinex,Genf,GE,Schweiz,CH,6.15084942376914,46.1588383881027
1257,La Croix-de-Rozon,Genf,GE,Schweiz,CH,6.113698,46.143149
1258,Perly,Genf,GE,Schweiz,CH,6.084668,46.155963
1260,Nyon,Waadt,VD,Schweiz,CH,6.22623739768015,46.3863516766147
1261,Longirod,Waadt,VD,Schweiz,CH,6.22595360630048,46.4980963577644
1261,Marchissy,Waadt,VD,Schweiz,CH,6.22595360630048,46.4980963577644
1261,Le Vaud,Waadt,VD,Schweiz,CH,6.22595360630048,46.4980963577644
1262,Eysins,Waadt,VD,Schweiz,CH,6.203942,46.381487
1263,Crassier,Waadt,VD,Schweiz,CH,6.167521,46.372818
1264,St-Cergue,Waadt,VD,Schweiz,CH,6.128801,46.449549
1265,La Cure,Waadt,VD,Schweiz,CH,6.088994792,46.466839
1266,Duillier,Waadt,VD,Schweiz,CH,6.228512,46.409134
1267,Vich,Waadt,VD,Schweiz,CH,6.236938,46.419989
1267,Coinsins,Waadt,VD,Schweiz,CH,6.236938,46.419989
1268,Burtigny,Waadt,VD,Schweiz,CH,6.26516222165592,46.4715360540756
1268,Begnins,Waadt,VD,Schweiz,CH,6.26516222165592,46.4715360540756
1269,Bassins,Waadt,VD,Schweiz,CH,6.199102,46.489365
1270,Trélex,Waadt,VD,Schweiz,CH,6.19653715991699,46.4189044142361
1271,Givrins,Waadt,VD,Schweiz,CH,6.199702,46.429028
1272,Genolier,Waadt,VD,Schweiz,CH,6.22024781382038,46.4362730964677
1273,Le Muids,Waadt,VD,Schweiz,CH,6.178289,46.486374
1273,Arzier,Waadt,VD,Schweiz,CH,6.178289,46.486374
1274,Grens,Waadt,VD,Schweiz,CH,6.19153038662104,46.3965555999338
1274,Signy,Waadt,VD,Schweiz,CH,6.19153038662104,46.3965555999338
1275,Chéserex,Waadt,VD,Schweiz,CH,6.147611,46.408585
1276,Gingins,Waadt,VD,Schweiz,CH,6.13796247567304,46.42625552048
1277,Arnex-sur-Nyon,Waadt,VD,Schweiz,CH,6.17905118386199,46.3809973076399
1277,Borex,Waadt,VD,Schweiz,CH,6.17905118386199,46.3809973076399
1278,La Rippe,Waadt,VD,Schweiz,CH,6.120058,46.390237
1279,Bogis-Bossey,Waadt,VD,Schweiz,CH,6.15430480493866,46.3400632837895
1279,Chavannes-de-Bogis,Waadt,VD,Schweiz,CH,6.15430480493866,46.3400632837895
1281,Russin,Genf,GE,Schweiz,CH,6.013753,46.193173
1283,Dardagny,Genf,GE,Schweiz,CH,5.988675,46.198632
1283,La Plaine,Genf,GE,Schweiz,CH,5.988675,46.198632
1284,Chancy,Genf,GE,Schweiz,CH,5.979862,46.148131
1285,Athenaz (Avusy),Genf,GE,Schweiz,CH,5.999065,46.148537
1286,Soral,Genf,GE,Schweiz,CH,6.04707,46.147695
1287,Laconnex,Genf,GE,Schweiz,CH,6.033322,46.154745
1288,Aire-la-Ville,Genf,GE,Schweiz,CH,6.041955,46.186249
1290,Versoix,Genf,GE,Schweiz,CH,6.14540765085155,46.291460364886
1290,Chavannes-des-Bois,Waadt,VD,Schweiz,CH,6.14540765085155,46.291460364886
1291,Commugny,Waadt,VD,Schweiz,CH,6.163428,46.320059
1292,Chambésy,Genf,GE,Schweiz,CH,6.138445,46.238909
1293,Bellevue,Genf,GE,Schweiz,CH,6.13649462032594,46.2572783516093
1294,Genthod,Genf,GE,Schweiz,CH,6.15384701619961,46.2664464355555
1295,Mies,Waadt,VD,Schweiz,CH,6.16047,46.302415
1295,Tannay,Waadt,VD,Schweiz,CH,6.16047,46.302415
1296,Coppet,Waadt,VD,Schweiz,CH,6.18889096714869,46.3213678403305
1297,Founex,Waadt,VD,Schweiz,CH,6.18488281388925,46.3364650645305
1298,Céligny,Genf,GE,Schweiz,CH,6.190504,46.351672
1299,Crans-près-Céligny,Waadt,VD,Schweiz,CH,6.20516002832202,46.3643344259071
1302,Vufflens-la-Ville,Waadt,VD,Schweiz,CH,6.536832,46.574752
1303,Penthaz,Waadt,VD,Schweiz,CH,6.54128395383113,46.5987574150908
1304,Senarclens,Waadt,VD,Schweiz,CH,6.48466471485459,46.5991788135357
1304,Dizy,Waadt,VD,Schweiz,CH,6.48466471485459,46.5991788135357
1304,Allens,Waadt,VD,Schweiz,CH,6.48466471485459,46.5991788135357
1304,Cossonay-Ville,Waadt,VD,Schweiz,CH,6.48466471485459,46.5991788135357
1305,Penthalaz,Waadt,VD,Schweiz,CH,6.5290532466581,46.6127753657491
1306,Daillens,Waadt,VD,Schweiz,CH,6.549613,46.628558
1307,Lussery-Villars,Waadt,VD,Schweiz,CH,7.163295,46.346778
1308,La Chaux (Cossonay),Waadt,VD,Schweiz,CH,6.450495,46.620473
1312,Eclépens,Waadt,VD,Schweiz,CH,6.54288062353087,46.651478351855
1313,Ferreyres,Waadt,VD,Schweiz,CH,6.478313,46.654285
1315,La Sarraz,Waadt,VD,Schweiz,CH,6.50475449542587,46.6545009536276
1316,Chevilly,Waadt,VD,Schweiz,CH,6.471855,46.641831
1317,Orny,Waadt,VD,Schweiz,CH,6.53565,46.66729
1318,Pompaples,Waadt,VD,Schweiz,CH,6.516883,46.672777
1321,Arnex-sur-Orbe,Waadt,VD,Schweiz,CH,6.515581,46.684973
1322,Croy,Waadt,VD,Schweiz,CH,6.48278,46.685152
1323,Romainmôtier,Waadt,VD,Schweiz,CH,6.461046,46.684682
1324,Premier,Waadt,VD,Schweiz,CH,6.441932,46.708039
1325,Vaulion,Waadt,VD,Schweiz,CH,6.384448,46.687029
1326,Juriens,Waadt,VD,Schweiz,CH,6.431743,46.68108
1329,Bretonnières,Waadt,VD,Schweiz,CH,6.470298,46.715272
1337,Vallorbe,Waadt,VD,Schweiz,CH,6.3713975420937,46.7078573068744
1338,Ballaigues,Waadt,VD,Schweiz,CH,6.41029406055792,46.7349063441187
1341,Orient,Waadt,VD,Schweiz,CH,6.237835,46.60108
1342,Le Pont,Waadt,VD,Schweiz,CH,6.309739749,46.667344
1343,Les Charbonnières,Waadt,VD,Schweiz,CH,6.318055902,46.666869
1344,L'Abbaye,Waadt,VD,Schweiz,CH,6.311316,46.63614
1345,Le Lieu,Waadt,VD,Schweiz,CH,6.279332,46.66169
1346,Les Bioux,Waadt,VD,Schweiz,CH,6.259954,46.615355
1347,Le Solliat,Waadt,VD,Schweiz,CH,6.233431548,46.620172
1347,Le Sentier,Waadt,VD,Schweiz,CH,6.233431548,46.620172
1348,Le Brassus,Waadt,VD,Schweiz,CH,6.218661128,46.582205
1350,Orbe,Waadt,VD,Schweiz,CH,6.54304237695518,46.7270108167162
1352,Agiez,Waadt,VD,Schweiz,CH,6.508968,46.71808
1353,Bofflens,Waadt,VD,Schweiz,CH,6.49527,46.701731
1354,Montcherand,Waadt,VD,Schweiz,CH,6.512095,46.733962
1355,Sergey,Waadt,VD,Schweiz,CH,6.498658,46.750606
1355,L'Abergement,Waadt,VD,Schweiz,CH,6.498658,46.750606
1356,Les Clées,Waadt,VD,Schweiz,CH,6.471261,46.732951
1356,La Russille,Waadt,VD,Schweiz,CH,6.471261,46.732951
1357,Lignerolle,Waadt,VD,Schweiz,CH,6.447387,46.746825
1358,Valeyres-sous-Rances,Waadt,VD,Schweiz,CH,6.529419,46.747154
1372,Bavois,Waadt,VD,Schweiz,CH,6.566261,46.681193
1373,Chavornay,Waadt,VD,Schweiz,CH,6.5689377901994,46.7065471527478
1374,Corcelles-sur-Chavornay,Waadt,VD,Schweiz,CH,6.604056,46.70035
1375,Penthéréaz,Waadt,VD,Schweiz,CH,6.605868,46.678332
1376,Eclagnens,Waadt,VD,Schweiz,CH,6.59021,46.646263
1376,Goumoens-le-Jux,Waadt,VD,Schweiz,CH,6.59021,46.646263
1376,Goumoens-la-Ville,Waadt,VD,Schweiz,CH,6.59021,46.646263
1377,Oulens-sous-Echallens,Waadt,VD,Schweiz,CH,6.569388,46.644784
1400,Yverdon-les-Bains,Waadt,VD,Schweiz,CH,6.63710733850261,46.7742729743557
1400,Cheseaux-Noréaz,Waadt,VD,Schweiz,CH,6.63710733850261,46.7742729743557
1404,Cuarny,Waadt,VD,Schweiz,CH,6.691131,46.77044
1404,Villars-Epeney,Waadt,VD,Schweiz,CH,6.691131,46.77044
1405,Pomy,Waadt,VD,Schweiz,CH,6.66845,46.755703
1406,Cronay,Waadt,VD,Schweiz,CH,6.699215,46.754431
1407,Bioley-Magnoux,Waadt,VD,Schweiz,CH,6.71462665643759,46.7265818368072
1407,Gossens,Waadt,VD,Schweiz,CH,6.71462665643759,46.7265818368072
1407,Mézery-près-Donneloye,Waadt,VD,Schweiz,CH,6.71462665643759,46.7265818368072
1407,Donneloye,Waadt,VD,Schweiz,CH,6.71462665643759,46.7265818368072
1408,Prahins,Waadt,VD,Schweiz,CH,6.732908,46.734973
1409,Chanéaz,Waadt,VD,Schweiz,CH,6.744256,46.727376
1410,Prévondavaux,Freiburg,FR,Schweiz,CH,6.75892349996416,46.7038518886797
1410,St-Cierges,Waadt,VD,Schweiz,CH,6.75892349996416,46.7038518886797
1410,Denezy,Waadt,VD,Schweiz,CH,6.75892349996416,46.7038518886797
1410,Correvon,Waadt,VD,Schweiz,CH,6.75892349996416,46.7038518886797
1410,Thierrens,Waadt,VD,Schweiz,CH,6.75892349996416,46.7038518886797
1412,Valeyres-sous-Ursins,Waadt,VD,Schweiz,CH,6.665983,46.734547
1412,Ursins,Waadt,VD,Schweiz,CH,6.665983,46.734547
1413,Orzens,Waadt,VD,Schweiz,CH,6.695104,46.715111
1415,Molondin,Waadt,VD,Schweiz,CH,6.756717,46.747617
1415,Démoret,Waadt,VD,Schweiz,CH,6.756717,46.747617
1416,Pailly,Waadt,VD,Schweiz,CH,6.675571,46.700051
1417,Epautheyres,Waadt,VD,Schweiz,CH,6.64441,46.714233
1417,Essertines-sur-Yverdon,Waadt,VD,Schweiz,CH,6.64441,46.714233
1418,Vuarrens,Waadt,VD,Schweiz,CH,6.645054,46.683532
1420,Fiez,Waadt,VD,Schweiz,CH,6.609864,46.830572
1421,Fontaines-sur-Grandson,Waadt,VD,Schweiz,CH,6.592088,46.843028
1421,Grandevent,Waadt,VD,Schweiz,CH,6.592088,46.843028
1422,Grandson,Waadt,VD,Schweiz,CH,6.64444897768886,46.8146257415386
1423,Fontanezier,Waadt,VD,Schweiz,CH,6.635012,46.842571
1423,Romairon,Waadt,VD,Schweiz,CH,6.635012,46.842571
1423,Vaugondry,Waadt,VD,Schweiz,CH,6.635012,46.842571
1423,Villars-Burquin,Waadt,VD,Schweiz,CH,6.635012,46.842571
1424,Champagne,Waadt,VD,Schweiz,CH,6.651905,46.835654
1425,Onnens VD,Waadt,VD,Schweiz,CH,6.673165,46.84819
1426,Corcelles-près-Concise,Waadt,VD,Schweiz,CH,6.71738209443221,46.8670684499117
1426,Concise,Waadt,VD,Schweiz,CH,6.71738209443221,46.8670684499117
1427,Bonvillars,Waadt,VD,Schweiz,CH,6.669699,46.848709
1428,Mutrux,Waadt,VD,Schweiz,CH,6.718037,46.880948
1428,Provence,Waadt,VD,Schweiz,CH,6.718037,46.880948
1429,Giez,Waadt,VD,Schweiz,CH,6.609285,46.810857
1430,Orges,Waadt,VD,Schweiz,CH,6.583351,46.807656
1431,Vugelles-La Mothe,Waadt,VD,Schweiz,CH,6.594341,46.831939
1431,Novalles,Waadt,VD,Schweiz,CH,6.594341,46.831939
1432,Belmont-sur-Yverdon,Waadt,VD,Schweiz,CH,6.625156,46.737334
1432,Gressy,Waadt,VD,Schweiz,CH,6.625156,46.737334
1433,Suchy,Waadt,VD,Schweiz,CH,6.602005,46.718904
1434,Ependes VD,Waadt,VD,Schweiz,CH,6.596881,46.742699
1435,Essert-Pittet,Waadt,VD,Schweiz,CH,6.578744,46.726949
1436,Treycovagnes,Waadt,VD,Schweiz,CH,6.605071,46.769062
1436,Chamblon,Waadt,VD,Schweiz,CH,6.605071,46.769062
1437,Suscévaz,Waadt,VD,Schweiz,CH,6.585026,46.76079
1438,Mathod,Waadt,VD,Schweiz,CH,6.56496694862654,46.7596383624637
1439,Rances,Waadt,VD,Schweiz,CH,6.524146,46.765853
1441,Valeyres-sous-Montagny,Waadt,VD,Schweiz,CH,6.603897,46.798093
1442,Montagny-près-Yverdon,Waadt,VD,Schweiz,CH,6.606159,46.789801
1443,Champvent,Waadt,VD,Schweiz,CH,6.563703,46.783517
1443,Essert-sous-Champvent,Waadt,VD,Schweiz,CH,6.563703,46.783517
1443,Villars-sous-Champvent,Waadt,VD,Schweiz,CH,6.563703,46.783517
1445,Vuiteboeuf,Waadt,VD,Schweiz,CH,6.552492,46.803379
1446,Baulmes,Waadt,VD,Schweiz,CH,6.49943782135818,46.7876718686269
1450,La Sagne (Ste-Croix),Waadt,VD,Schweiz,CH,6.50105,46.82421
1450,Le Château-de-Ste-Croix,Waadt,VD,Schweiz,CH,6.50105,46.82421
1450,Ste-Croix,Waadt,VD,Schweiz,CH,6.50105,46.82421
1452,Les Rasses,Waadt,VD,Schweiz,CH,6.538816,46.828968
1453,Mauborget,Waadt,VD,Schweiz,CH,6.558819,46.842478
1453,Bullet,Waadt,VD,Schweiz,CH,6.558819,46.842478
1454,La Vraconnaz,Waadt,VD,Schweiz,CH,6.482612,46.841718
1454,L'Auberson,Waadt,VD,Schweiz,CH,6.482612,46.841718
1462,Yvonand,Waadt,VD,Schweiz,CH,6.7360517913174,46.7903520588759
1463,Rovray,Waadt,VD,Schweiz,CH,6.766508,46.785768
1464,Chêne-Pâquier,Waadt,VD,Schweiz,CH,6.768111,46.76694
1464,Chavannes-le-Chêne,Waadt,VD,Schweiz,CH,6.768111,46.76694
1468,Cheyres,Freiburg,FR,Schweiz,CH,6.785646,46.81149
1470,Bollion,Freiburg,FR,Schweiz,CH,6.85667534196176,46.8496454800377
1470,Lully FR,Freiburg,FR,Schweiz,CH,6.85667534196176,46.8496454800377
1470,Seiry,Freiburg,FR,Schweiz,CH,6.85667534196176,46.8496454800377
1470,Estavayer-le-Lac,Freiburg,FR,Schweiz,CH,6.85667534196176,46.8496454800377
1473,Font,Freiburg,FR,Schweiz,CH,6.822625,46.832977
1473,Châtillon FR,Freiburg,FR,Schweiz,CH,6.822625,46.832977
1474,Châbles FR,Freiburg,FR,Schweiz,CH,6.810073,46.821238
1475,Autavaux,Freiburg,FR,Schweiz,CH,6.720421,46.781084
1475,Forel FR,Freiburg,FR,Schweiz,CH,6.720421,46.781084
1475,Montbrelloz,Freiburg,FR,Schweiz,CH,6.720421,46.781084
1482,Cugy FR,Freiburg,FR,Schweiz,CH,6.861591,46.809002
1483,Frasses,Freiburg,FR,Schweiz,CH,6.863445,46.82679
1483,Vesin,Freiburg,FR,Schweiz,CH,6.863445,46.82679
1483,Montet (Broye),Freiburg,FR,Schweiz,CH,6.863445,46.82679
1484,Aumont,Freiburg,FR,Schweiz,CH,6.850316859,46.799433
1484,Granges-de-Vesin,Freiburg,FR,Schweiz,CH,6.850316859,46.799433
1485,Nuvilly,Freiburg,FR,Schweiz,CH,6.830705,46.780232
1486,Vuissens,Freiburg,FR,Schweiz,CH,6.768336,46.731327
1489,Murist,Freiburg,FR,Schweiz,CH,6.802546,46.79397
1509,Vucherens,Waadt,VD,Schweiz,CH,6.775558,46.623673
1510,Syens,Waadt,VD,Schweiz,CH,6.77819739411981,46.6429013313019
1510,Moudon,Waadt,VD,Schweiz,CH,6.77819739411981,46.6429013313019
1512,Chavannes-sur-Moudon,Waadt,VD,Schweiz,CH,6.813108,46.65919
1513,Hermenches,Waadt,VD,Schweiz,CH,6.753961,46.63734
1513,Rossenges,Waadt,VD,Schweiz,CH,6.753961,46.63734
1514,Bussy-sur-Moudon,Waadt,VD,Schweiz,CH,6.809362,46.689729
1515,Neyruz-sur-Moudon,Waadt,VD,Schweiz,CH,6.785907,46.696228
1515,Villars-le-Comte,Waadt,VD,Schweiz,CH,6.785907,46.696228
1521,Curtilles,Waadt,VD,Schweiz,CH,6.843984,46.697767
1522,Oulens-sur-Lucens,Waadt,VD,Schweiz,CH,6.81423677930515,46.7075594097651
1522,Lucens,Waadt,VD,Schweiz,CH,6.81423677930515,46.7075594097651
1523,Granges-près-Marnand,Waadt,VD,Schweiz,CH,6.886437,46.76433
1524,Marnand,Waadt,VD,Schweiz,CH,6.901661,46.76067
1525,Seigneux,Waadt,VD,Schweiz,CH,8.733607,46.649679
1525,Henniez,Waadt,VD,Schweiz,CH,8.733607,46.649679
1526,Forel-sur-Lucens,Waadt,VD,Schweiz,CH,6.823914,46.722221
1526,Cremin,Waadt,VD,Schweiz,CH,6.823914,46.722221
1527,Villeneuve FR,Freiburg,FR,Schweiz,CH,8.752827,47.658505
1528,Praratoud,Freiburg,FR,Schweiz,CH,6.849903,46.739704
1528,Surpierre,Freiburg,FR,Schweiz,CH,6.849903,46.739704
1529,Cheiry,Freiburg,FR,Schweiz,CH,6.839812,46.753116
1530,Payerne,Waadt,VD,Schweiz,CH,6.93474251227442,46.819143234929
1532,Fétigny,Freiburg,FR,Schweiz,CH,6.912043,46.792397
1533,Ménières,Freiburg,FR,Schweiz,CH,6.884994,46.784934
1534,Chapelle (Broye),Freiburg,FR,Schweiz,CH,6.856818,46.773586
1534,Sassel,Waadt,VD,Schweiz,CH,6.856818,46.773586
1535,Combremont-le-Grand,Waadt,VD,Schweiz,CH,6.821153,46.764909
1536,Combremont-le-Petit,Waadt,VD,Schweiz,CH,6.819589,46.746177
1537,Champtauroz,Waadt,VD,Schweiz,CH,6.783745,46.757145
1538,Treytorrens (Payerne),Waadt,VD,Schweiz,CH,6.801119,46.772986
1541,Morens FR,Freiburg,FR,Schweiz,CH,6.86092,46.833606
1541,Sévaz,Freiburg,FR,Schweiz,CH,6.86092,46.833606
1541,Bussy FR,Freiburg,FR,Schweiz,CH,6.86092,46.833606
1542,Rueyres-les-Prés,Freiburg,FR,Schweiz,CH,6.910914,46.856665
1543,Grandcour,Waadt,VD,Schweiz,CH,6.932124,46.873824
1544,Gletterens,Freiburg,FR,Schweiz,CH,6.931024,46.900255
1545,Chevroux,Waadt,VD,Schweiz,CH,6.906779,46.888696
1551,Vers-chez-Perrin,Waadt,VD,Schweiz,CH,6.941987,46.797449
1552,Trey,Waadt,VD,Schweiz,CH,6.921809,46.774843
1553,Châtonnaye,Freiburg,FR,Schweiz,CH,6.938321,46.752828
1554,Sédeilles,Waadt,VD,Schweiz,CH,6.929186,46.742578
1554,Rossens VD,Waadt,VD,Schweiz,CH,6.929186,46.742578
1555,Villarzel,Waadt,VD,Schweiz,CH,6.906826,46.743982
1562,Corcelles-près-Payerne,Waadt,VD,Schweiz,CH,6.966206,46.836773
1563,Dompierre FR,Freiburg,FR,Schweiz,CH,6.989638,46.85493
1564,Domdidier,Freiburg,FR,Schweiz,CH,7.01606931099005,46.8626420473977
1565,Vallon,Freiburg,FR,Schweiz,CH,6.968963,46.874029
1565,Missy,Waadt,VD,Schweiz,CH,6.968963,46.874029
1566,Les Friques,Freiburg,FR,Schweiz,CH,6.903848,46.891611
1566,St-Aubin FR,Freiburg,FR,Schweiz,CH,6.903848,46.891611
1567,Delley,Freiburg,FR,Schweiz,CH,6.968416,46.914464
1568,Portalban,Freiburg,FR,Schweiz,CH,6.95692819,46.8994
1580,Oleyres,Waadt,VD,Schweiz,CH,7.03834543352263,46.8846619907763
1580,Avenches,Waadt,VD,Schweiz,CH,7.03834543352263,46.8846619907763
1582,Donatyre,Waadt,VD,Schweiz,CH,7.060731,46.872277
1583,Villarepos,Freiburg,FR,Schweiz,CH,7.078231,46.882019
1584,Villars-le-Grand,Waadt,VD,Schweiz,CH,6.998655,46.904101
1585,Bellerive VD,Waadt,VD,Schweiz,CH,6.833008,46.908054
1585,Cotterd,Waadt,VD,Schweiz,CH,6.833008,46.908054
1585,Salavaux,Waadt,VD,Schweiz,CH,6.833008,46.908054
1586,Vallamand,Waadt,VD,Schweiz,CH,7.036886,46.932357
1587,Montmagny,Waadt,VD,Schweiz,CH,7.018484,46.909053
1587,Constantine,Waadt,VD,Schweiz,CH,7.018484,46.909053
1588,Cudrefin,Waadt,VD,Schweiz,CH,7.02705751443787,46.9521412360162
1589,Chabrey,Waadt,VD,Schweiz,CH,6.982166,46.929702
1595,Clavaleyres,Bern,BE,Schweiz,CH,7.088361,46.894717
1595,Faoug,Waadt,VD,Schweiz,CH,7.088361,46.894717
1607,Les Tavernes,Waadt,VD,Schweiz,CH,6.835247,46.549122
1607,Les Thioleyres,Waadt,VD,Schweiz,CH,6.835247,46.549122
1607,Palézieux-Village,Waadt,VD,Schweiz,CH,6.835247,46.549122
1607,Palézieux,Waadt,VD,Schweiz,CH,6.835247,46.549122
1608,Chapelle (Glâne),Freiburg,FR,Schweiz,CH,6.862491,46.562115
1608,Bussigny-sur-Oron,Waadt,VD,Schweiz,CH,6.862491,46.562115
1608,Chesalles-sur-Oron,Waadt,VD,Schweiz,CH,6.862491,46.562115
1608,Oron-le-Châtel,Waadt,VD,Schweiz,CH,6.862491,46.562115
1609,Besencens,Freiburg,FR,Schweiz,CH,6.8814,46.582988
1609,Fiaugères,Freiburg,FR,Schweiz,CH,6.8814,46.582988
1609,Le Jordil,Freiburg,FR,Schweiz,CH,6.8814,46.582988
1609,St-Martin FR,Freiburg,FR,Schweiz,CH,6.8814,46.582988
1610,Châtillens,Waadt,VD,Schweiz,CH,6.80531914242086,46.5618766544093
1610,Vuibroye,Waadt,VD,Schweiz,CH,6.80531914242086,46.5618766544093
1610,Oron-la-Ville,Waadt,VD,Schweiz,CH,6.80531914242086,46.5618766544093
1611,Le Crêt-près-Semsales,Freiburg,FR,Schweiz,CH,6.93333,46.6
1612,Ecoteaux,Waadt,VD,Schweiz,CH,6.854078,46.544434
1613,Maracon,Waadt,VD,Schweiz,CH,6.878638,46.553065
1614,Granges (Veveyse),Freiburg,FR,Schweiz,CH,6.80516,46.524317
1615,Bossonnens,Freiburg,FR,Schweiz,CH,6.84814310766025,46.5289392408985
1616,Attalens,Freiburg,FR,Schweiz,CH,6.85740813942216,46.5120387939376
1617,Tatroz,Freiburg,FR,Schweiz,CH,6.880472,46.535052
1617,Remaufens,Freiburg,FR,Schweiz,CH,6.880472,46.535052
1618,Châtel-St-Denis,Freiburg,FR,Schweiz,CH,6.945905,46.521521
1619,Les Paccots,Freiburg,FR,Schweiz,CH,6.943916,46.522506
1623,Semsales,Freiburg,FR,Schweiz,CH,6.95570804186425,46.569855822447
1624,La Verrerie,Freiburg,FR,Schweiz,CH,6.920266,46.597601
1624,Grattavache,Freiburg,FR,Schweiz,CH,6.920266,46.597601
1624,Progens,Freiburg,FR,Schweiz,CH,6.920266,46.597601
1625,Maules,Freiburg,FR,Schweiz,CH,6.990492,46.638724
1625,Sâles (Gruyère),Freiburg,FR,Schweiz,CH,6.990492,46.638724
1626,Romanens,Freiburg,FR,Schweiz,CH,6.941994218,46.650697
1626,Treyfayes,Freiburg,FR,Schweiz,CH,6.941994218,46.650697
1626,Rueyres-Treyfayes,Freiburg,FR,Schweiz,CH,6.941994218,46.650697
1627,Vaulruz,Freiburg,FR,Schweiz,CH,6.98626375022755,46.6147260909357
1628,Vuadens,Freiburg,FR,Schweiz,CH,7.0047086018158,46.6084019078985
1630,Bulle,Freiburg,FR,Schweiz,CH,7.04614631002396,46.6075267381276
1632,Riaz,Freiburg,FR,Schweiz,CH,7.04243454386885,46.642273149494
1633,Vuippens,Freiburg,FR,Schweiz,CH,7.049728,46.656244
1633,Marsens,Freiburg,FR,Schweiz,CH,7.049728,46.656244
1634,La Roche FR,Freiburg,FR,Schweiz,CH,7.158598,46.691269
1635,La Tour-de-Trême,Freiburg,FR,Schweiz,CH,7.058629515,46.625008
1636,Broc,Freiburg,FR,Schweiz,CH,7.11929833237836,46.60033393635
1637,Charmey (Gruyère),Freiburg,FR,Schweiz,CH,7.199832,46.598926
1638,Morlon,Freiburg,FR,Schweiz,CH,7.086305,46.623573
1642,Sorens,Freiburg,FR,Schweiz,CH,7.044561,46.672535
1643,Gumefens,Freiburg,FR,Schweiz,CH,7.07685,46.67729
1644,Avry-devant-Pont,Freiburg,FR,Schweiz,CH,7.086251,46.685279
1645,Le Bry,Freiburg,FR,Schweiz,CH,7.0830203,46.699477
1646,Echarlens,Freiburg,FR,Schweiz,CH,7.07688,46.648904
1647,Corbières,Freiburg,FR,Schweiz,CH,7.116222,46.65375
1648,Hauteville,Freiburg,FR,Schweiz,CH,7.130085,46.66819
1649,Pont-la-Ville,Freiburg,FR,Schweiz,CH,7.110024,46.700951
1651,Villarvolard,Freiburg,FR,Schweiz,CH,7.116732,46.64487
1652,Botterens,Freiburg,FR,Schweiz,CH,7.114274,46.624826
1652,Villarbeney,Freiburg,FR,Schweiz,CH,7.114274,46.624826
1653,Châtel-sur-Montsalvens,Freiburg,FR,Schweiz,CH,7.126975,46.617184
1653,Crésuz,Freiburg,FR,Schweiz,CH,7.126975,46.617184
1654,Cerniat FR,Freiburg,FR,Schweiz,CH,7.20093,46.664901
1656,Im Fang,Freiburg,FR,Schweiz,CH,7.267483,46.605853
1656,Jaun,Freiburg,FR,Schweiz,CH,7.267483,46.605853
1657,Abländschen,Bern,BE,Schweiz,CH,7.307402871,46.565187
1658,La Tine,Waadt,VD,Schweiz,CH,7.063937,46.4661
1658,Rossinière,Waadt,VD,Schweiz,CH,7.063937,46.4661
1659,Flendruz,Waadt,VD,Schweiz,CH,7.214277,46.499224
1659,Rougemont,Waadt,VD,Schweiz,CH,7.214277,46.499224
1660,Les Moulins,Waadt,VD,Schweiz,CH,7.137467,46.447343
1660,L'Etivaz,Waadt,VD,Schweiz,CH,7.137467,46.447343
1660,Château-d'Oex,Waadt,VD,Schweiz,CH,7.137467,46.447343
1660,La Lécherette,Waadt,VD,Schweiz,CH,7.137467,46.447343
1661,Le Pâquier-Montbarry,Freiburg,FR,Schweiz,CH,7.03636,46.591326
1663,Moléson-sur-Gruyères,Freiburg,FR,Schweiz,CH,7.080487,46.577701
1663,Pringy,Freiburg,FR,Schweiz,CH,7.080487,46.577701
1663,Gruyères,Freiburg,FR,Schweiz,CH,7.080487,46.577701
1663,Epagny,Freiburg,FR,Schweiz,CH,7.080487,46.577701
1665,Estavannens,Freiburg,FR,Schweiz,CH,7.099881025,46.573161
1666,Villars-sous-Mont,Freiburg,FR,Schweiz,CH,7.106078,46.531556
1666,Grandvillard,Freiburg,FR,Schweiz,CH,7.106078,46.531556
1667,Enney,Freiburg,FR,Schweiz,CH,7.083570437,46.572411
1669,Neirivue,Freiburg,FR,Schweiz,CH,7.053598615,46.482967
1669,Les Sciernes-d'Albeuve,Freiburg,FR,Schweiz,CH,7.053598615,46.482967
1669,Montbovon,Freiburg,FR,Schweiz,CH,7.053598615,46.482967
1669,Lessoc,Freiburg,FR,Schweiz,CH,7.053598615,46.482967
1669,Albeuve,Freiburg,FR,Schweiz,CH,7.053598615,46.482967
1670,Bionnens,Freiburg,FR,Schweiz,CH,6.85155151743097,46.6239708362784
1670,Esmonts,Freiburg,FR,Schweiz,CH,6.85155151743097,46.6239708362784
1670,Ursy,Freiburg,FR,Schweiz,CH,6.85155151743097,46.6239708362784
1673,Auboranges,Freiburg,FR,Schweiz,CH,6.805051,46.582484
1673,Ecublens FR,Freiburg,FR,Schweiz,CH,6.805051,46.582484
1673,Rue,Freiburg,FR,Schweiz,CH,6.805051,46.582484
1673,Gillarens,Freiburg,FR,Schweiz,CH,6.805051,46.582484
1673,Promasens,Freiburg,FR,Schweiz,CH,6.805051,46.582484
1674,Vuarmarens,Freiburg,FR,Schweiz,CH,6.836437,46.639257
1674,Montet (Glâne),Freiburg,FR,Schweiz,CH,6.836437,46.639257
1674,Morlens,Freiburg,FR,Schweiz,CH,6.836437,46.639257
1675,Vauderens,Freiburg,FR,Schweiz,CH,6.849407771,46.616428
1675,Blessens,Freiburg,FR,Schweiz,CH,6.849407771,46.616428
1675,Mossel,Freiburg,FR,Schweiz,CH,6.849407771,46.616428
1676,Chavannes-les-Forts,Freiburg,FR,Schweiz,CH,6.895357,46.659914
1677,Prez-vers-Siviriez,Freiburg,FR,Schweiz,CH,6.87385,46.638405
1678,Siviriez,Freiburg,FR,Schweiz,CH,6.88628510767962,46.6521933331865
1679,Villaraboud,Freiburg,FR,Schweiz,CH,6.911987,46.659577
1680,Berlens,Freiburg,FR,Schweiz,CH,6.915691,46.699726
1680,Romont FR,Freiburg,FR,Schweiz,CH,6.915691,46.699726
1681,Billens,Freiburg,FR,Schweiz,CH,6.8875,46.685092
1681,Hennens,Freiburg,FR,Schweiz,CH,6.8875,46.685092
1682,Villars-Bramard,Waadt,VD,Schweiz,CH,6.864827,46.692084
1682,Dompierre VD,Waadt,VD,Schweiz,CH,6.864827,46.692084
1682,Lovatens,Waadt,VD,Schweiz,CH,6.864827,46.692084
1682,Cerniaz VD,Waadt,VD,Schweiz,CH,6.864827,46.692084
1682,Prévonloup,Waadt,VD,Schweiz,CH,6.864827,46.692084
1683,Brenles,Waadt,VD,Schweiz,CH,6.858015,46.668609
1683,Chesalles-sur-Moudon,Waadt,VD,Schweiz,CH,6.858015,46.668609
1683,Sarzens,Waadt,VD,Schweiz,CH,6.858015,46.668609
1684,Mézières FR,Freiburg,FR,Schweiz,CH,6.894757,46.683134
1685,Villariaz,Freiburg,FR,Schweiz,CH,6.940853,46.664546
1686,Grangettes-près-Romont,Freiburg,FR,Schweiz,CH,6.973767,46.670081
1686,La Neirigue,Freiburg,FR,Schweiz,CH,6.973767,46.670081
1687,Estévenens,Freiburg,FR,Schweiz,CH,6.931891,46.634992
1687,La Magne,Freiburg,FR,Schweiz,CH,6.931891,46.634992
1687,Vuisternens-devant-Romont,Freiburg,FR,Schweiz,CH,6.931891,46.634992
1688,Sommentier,Freiburg,FR,Schweiz,CH,6.901256,46.636339
1688,Lieffrens,Freiburg,FR,Schweiz,CH,6.901256,46.636339
1689,Le Châtelard-près-Romont,Freiburg,FR,Schweiz,CH,6.989103,46.675505
1690,Lussy FR,Freiburg,FR,Schweiz,CH,6.958966,46.719884
1690,Villaz-St-Pierre,Freiburg,FR,Schweiz,CH,6.958966,46.719884
1691,Villarimboud,Freiburg,FR,Schweiz,CH,6.963345,46.740865
1692,Massonnens,Freiburg,FR,Schweiz,CH,6.971642,46.694908
1694,Orsonnens,Freiburg,FR,Schweiz,CH,7.016817939,46.700006
1694,Chavannes-sous-Orsonnens,Freiburg,FR,Schweiz,CH,7.016817939,46.700006
1694,Villargiroud,Freiburg,FR,Schweiz,CH,7.016817939,46.700006
1694,Villarsiviriaux,Freiburg,FR,Schweiz,CH,7.016817939,46.700006
1695,Villarlod,Freiburg,FR,Schweiz,CH,7.01663796,46.716864
1695,Estavayer-le-Gibloux,Freiburg,FR,Schweiz,CH,7.01663796,46.716864
1695,Rueyres-St-Laurent,Freiburg,FR,Schweiz,CH,7.01663796,46.716864
1695,Villarsel-le-Gibloux,Freiburg,FR,Schweiz,CH,7.01663796,46.716864
1696,Vuisternens-en-Ogoz,Freiburg,FR,Schweiz,CH,7.055859,46.704202
1697,La Joux FR,Freiburg,FR,Schweiz,CH,6.911166,46.620669
1697,Les Ecasseys,Freiburg,FR,Schweiz,CH,6.911166,46.620669
1699,Bouloz,Freiburg,FR,Schweiz,CH,6.869561699,46.598417
1699,Pont (Veveyse),Freiburg,FR,Schweiz,CH,6.869561699,46.598417
1699,Porsel,Freiburg,FR,Schweiz,CH,6.869561699,46.598417
1700,Fribourg,Freiburg,FR,Schweiz,CH,7.15974364171403,46.8041803910762
1708,Fribourg,Freiburg,FR,Schweiz,CH,7.153683,46.803746
1712,Tafers,Freiburg,FR,Schweiz,CH,7.22097866575472,46.8163132920317
1713,St. Antoni,Freiburg,FR,Schweiz,CH,7.2824659198597,46.8185996957328
1714,Heitenried,Freiburg,FR,Schweiz,CH,7.30239152347966,46.8363011059289
1715,Alterswil FR,Freiburg,FR,Schweiz,CH,7.258036,46.792452
1716,Oberschrot,Freiburg,FR,Schweiz,CH,7.281774214,46.663286
1716,Schwarzsee,Freiburg,FR,Schweiz,CH,7.281774214,46.663286
1716,Plaffeien,Freiburg,FR,Schweiz,CH,7.281774214,46.663286
1717,St. Ursen,Freiburg,FR,Schweiz,CH,7.221503,46.786473
1718,Rechthalten,Freiburg,FR,Schweiz,CH,7.245521,46.764865
1719,Zumholz,Freiburg,FR,Schweiz,CH,7.275161,46.757378
1719,Brünisried,Freiburg,FR,Schweiz,CH,7.275161,46.757378
1720,Chésopelloz,Freiburg,FR,Schweiz,CH,7.09624530768153,46.8021007840698
1720,Corminboeuf,Freiburg,FR,Schweiz,CH,7.09624530768153,46.8021007840698
1721,Cormérod,Freiburg,FR,Schweiz,CH,7.080615,46.854733
1721,Courtion,Freiburg,FR,Schweiz,CH,7.080615,46.854733
1721,Misery,Freiburg,FR,Schweiz,CH,7.080615,46.854733
1722,Bourguillon,Freiburg,FR,Schweiz,CH,7.17596,46.800331
1723,Marly,Freiburg,FR,Schweiz,CH,7.14920457503296,46.7760073503889
1723,Pierrafortscha,Freiburg,FR,Schweiz,CH,7.14920457503296,46.7760073503889
1723,Villarsel-sur-Marly,Freiburg,FR,Schweiz,CH,7.14920457503296,46.7760073503889
1724,Bonnefontaine,Freiburg,FR,Schweiz,CH,7.141011,46.738657
1724,Essert FR,Freiburg,FR,Schweiz,CH,7.141011,46.738657
1724,Ferpicloz,Freiburg,FR,Schweiz,CH,7.141011,46.738657
1724,Montévraz,Freiburg,FR,Schweiz,CH,7.141011,46.738657
1724,Oberried FR,Freiburg,FR,Schweiz,CH,7.141011,46.738657
1724,Senèdes,Freiburg,FR,Schweiz,CH,7.141011,46.738657
1724,Zénauva,Freiburg,FR,Schweiz,CH,7.141011,46.738657
1724,Le Mouret,Freiburg,FR,Schweiz,CH,7.141011,46.738657
1725,Posieux,Freiburg,FR,Schweiz,CH,7.095301,46.760601
1726,Farvagny-le-Petit,Freiburg,FR,Schweiz,CH,7.06627399994342,46.7277039078489
1726,Grenilles,Freiburg,FR,Schweiz,CH,7.06627399994342,46.7277039078489
1726,Posat,Freiburg,FR,Schweiz,CH,7.06627399994342,46.7277039078489
1726,Farvagny,Freiburg,FR,Schweiz,CH,7.06627399994342,46.7277039078489
1727,Magnedens,Freiburg,FR,Schweiz,CH,7.08987,46.74142
1727,Corpataux-Magnedens,Freiburg,FR,Schweiz,CH,7.08987,46.74142
1728,Rossens FR,Freiburg,FR,Schweiz,CH,7.089078,46.722236
1730,Ecuvillens,Freiburg,FR,Schweiz,CH,7.083637445,46.74982
1731,Ependes FR,Freiburg,FR,Schweiz,CH,7.031874,46.072915
1732,Arconciel,Freiburg,FR,Schweiz,CH,7.120408,46.750028
1733,Treyvaux,Freiburg,FR,Schweiz,CH,7.14383024407762,46.7242154053793
1734,Tentlingen,Freiburg,FR,Schweiz,CH,7.198929,46.763994
1735,Giffers,Freiburg,FR,Schweiz,CH,7.2241440458381,46.7549792883994
1736,St. Silvester,Freiburg,FR,Schweiz,CH,7.220626,46.7364
1737,Plasselb,Freiburg,FR,Schweiz,CH,7.24365922754616,46.7111522209436
1738,Sangernboden,Bern,BE,Schweiz,CH,7.34832804,46.719373
1740,Neyruz FR,Freiburg,FR,Schweiz,CH,7.064559,46.76518
1741,Cottens FR,Freiburg,FR,Schweiz,CH,7.036656,46.750917
1742,Autigny,Freiburg,FR,Schweiz,CH,7.026557,46.737294
1744,Chénens,Freiburg,FR,Schweiz,CH,6.997438,46.742321
1745,Lentigny,Freiburg,FR,Schweiz,CH,7.004445,46.759065
1746,Prez-vers-Noréaz,Freiburg,FR,Schweiz,CH,7.01454902672259,46.7858507881762
1747,Corserey,Freiburg,FR,Schweiz,CH,6.98869,46.770981
1748,Torny-le-Grand,Freiburg,FR,Schweiz,CH,6.966834,46.77063
1749,Middes,Freiburg,FR,Schweiz,CH,6.949336,46.767654
1752,Villars-sur-Glâne,Freiburg,FR,Schweiz,CH,7.12513666220914,46.7943576115877
1753,Matran,Freiburg,FR,Schweiz,CH,7.09100444650705,46.7839140574093
1754,Rosé,Freiburg,FR,Schweiz,CH,7.096297681,46.781159
1754,Corjolens,Freiburg,FR,Schweiz,CH,7.096297681,46.781159
1754,Avry-sur-Matran,Freiburg,FR,Schweiz,CH,7.096297681,46.781159
1754,Avry-Centre FR,Freiburg,FR,Schweiz,CH,7.096297681,46.781159
1756,Onnens FR,Freiburg,FR,Schweiz,CH,7.022437,46.773683
1756,Lovens,Freiburg,FR,Schweiz,CH,7.022437,46.773683
1757,Noréaz,Freiburg,FR,Schweiz,CH,7.03654690969629,46.8022122167216
1762,Givisiez,Freiburg,FR,Schweiz,CH,7.12558028760194,46.8127275781619
1763,Granges-Paccot,Freiburg,FR,Schweiz,CH,7.14835909649927,46.8237081522955
1772,Ponthaux,Freiburg,FR,Schweiz,CH,7.06587649388618,46.8347223528445
1772,Nierlet-les-Bois,Freiburg,FR,Schweiz,CH,7.06587649388618,46.8347223528445
1772,Grolley,Freiburg,FR,Schweiz,CH,7.06587649388618,46.8347223528445
1773,Léchelles,Freiburg,FR,Schweiz,CH,7.023145,46.833119
1773,Chandon,Freiburg,FR,Schweiz,CH,7.023145,46.833119
1773,Russy,Freiburg,FR,Schweiz,CH,7.023145,46.833119
1774,Montagny-les-Monts,Freiburg,FR,Schweiz,CH,6.977285,46.818335
1774,Cousset,Freiburg,FR,Schweiz,CH,6.977285,46.818335
1775,Mannens,Freiburg,FR,Schweiz,CH,6.984388289,46.783288
1775,Grandsivaz,Freiburg,FR,Schweiz,CH,6.984388289,46.783288
1776,Montagny-la-Ville,Freiburg,FR,Schweiz,CH,6.97711941,46.816224
1782,Autafond,Freiburg,FR,Schweiz,CH,7.09504084258676,46.8287327604816
1782,La Corbaz,Freiburg,FR,Schweiz,CH,7.09504084258676,46.8287327604816
1782,Cormagens,Freiburg,FR,Schweiz,CH,7.09504084258676,46.8287327604816
1782,Lossy,Freiburg,FR,Schweiz,CH,7.09504084258676,46.8287327604816
1782,Formangueires,Freiburg,FR,Schweiz,CH,7.09504084258676,46.8287327604816
1782,Belfaux,Freiburg,FR,Schweiz,CH,7.09504084258676,46.8287327604816
1783,Pensier,Freiburg,FR,Schweiz,CH,7.15878,46.859837
1783,Barberêche,Freiburg,FR,Schweiz,CH,7.15878,46.859837
1784,Cournillens,Freiburg,FR,Schweiz,CH,7.12627738645366,46.86430927162
1784,Wallenried,Freiburg,FR,Schweiz,CH,7.12627738645366,46.86430927162
1784,Courtepin,Freiburg,FR,Schweiz,CH,7.12627738645366,46.86430927162
1785,Cressier FR,Freiburg,FR,Schweiz,CH,7.13546,46.897081
1786,Sugiez,Freiburg,FR,Schweiz,CH,7.110598424,46.97103
1787,Môtier (Vully),Freiburg,FR,Schweiz,CH,7.049398,46.941564
1787,Mur (Vully) FR,Freiburg,FR,Schweiz,CH,7.049398,46.941564
1787,Mur (Vully) VD,Waadt,VD,Schweiz,CH,7.049398,46.941564
1788,Praz (Vully),Freiburg,FR,Schweiz,CH,7.09891,46.953854
1789,Lugnorre,Freiburg,FR,Schweiz,CH,7.069387,46.95
1791,Courtaman,Freiburg,FR,Schweiz,CH,7.131064,46.871941
1792,Guschelmuth,Freiburg,FR,Schweiz,CH,7.149826414,46.862963
1792,Cordast,Freiburg,FR,Schweiz,CH,7.149826414,46.862963
1793,Jeuss,Freiburg,FR,Schweiz,CH,7.167655,46.903673
1794,Salvenach,Freiburg,FR,Schweiz,CH,7.151784,46.909391
1795,Courlevon,Freiburg,FR,Schweiz,CH,7.108923,46.891513
1796,Courgevaux,Freiburg,FR,Schweiz,CH,7.103852,46.905133
1797,Münchenwiler,Bern,BE,Schweiz,CH,7.123924,46.907758
1800,Vevey,Waadt,VD,Schweiz,CH,6.84804687046863,46.4642315188698
1801,Le Mont-Pèlerin,Waadt,VD,Schweiz,CH,6.83138,46.48211
1802,Corseaux,Waadt,VD,Schweiz,CH,6.82827282459203,46.4710448242313
1803,Chardonne,Waadt,VD,Schweiz,CH,6.82160352342654,46.4886047524818
1804,Corsier-sur-Vevey,Waadt,VD,Schweiz,CH,6.87099959122717,46.4944126473213
1805,Jongny,Waadt,VD,Schweiz,CH,6.84654436697438,46.4876129486233
1806,St-Légier-La Chiésaz,Waadt,VD,Schweiz,CH,6.88207623,46.463956
1807,Blonay,Waadt,VD,Schweiz,CH,6.92197113856202,46.4778696154125
1808,Les Monts-de-Corsier,Waadt,VD,Schweiz,CH,6.88124,46.503485
1809,Fenil-sur-Corsier,Waadt,VD,Schweiz,CH,6.864987,46.482776
1814,La Tour-de-Peilz,Waadt,VD,Schweiz,CH,6.86935193198035,46.4549036425443
1815,Clarens,Waadt,VD,Schweiz,CH,6.890805,46.440945
1816,Chailly-Montreux,Waadt,VD,Schweiz,CH,6.89164,46.449077
1817,Brent,Waadt,VD,Schweiz,CH,6.9011,46.457725
1820,Montreux,Waadt,VD,Schweiz,CH,6.94079020716356,46.4517938632647
1820,Veytaux,Waadt,VD,Schweiz,CH,6.94079020716356,46.4517938632647
1820,Territet,Waadt,VD,Schweiz,CH,6.94079020716356,46.4517938632647
1822,Chernex,Waadt,VD,Schweiz,CH,6.911375,46.443545
1823,Glion,Waadt,VD,Schweiz,CH,6.924678029,46.414038
1824,Caux,Waadt,VD,Schweiz,CH,6.932099393,46.433459
1832,Villard-sur-Chamby,Waadt,VD,Schweiz,CH,6.91388,46.44888
1832,Chamby,Waadt,VD,Schweiz,CH,6.91388,46.44888
1833,Les Avants,Waadt,VD,Schweiz,CH,6.95158215,46.449441
1844,Villeneuve VD,Waadt,VD,Schweiz,CH,6.968948,46.403846
1845,Noville,Waadt,VD,Schweiz,CH,6.89613347682132,46.3830231091798
1846,Chessel,Waadt,VD,Schweiz,CH,6.894606,46.349049
1847,Rennaz,Waadt,VD,Schweiz,CH,6.916829,46.375443
1852,Roche VD,Waadt,VD,Schweiz,CH,6.843875,46.356976
1853,Yvorne,Waadt,VD,Schweiz,CH,6.95034,46.338129
1854,Leysin,Waadt,VD,Schweiz,CH,7.01107508943472,46.3525332607535
1856,Corbeyrier,Waadt,VD,Schweiz,CH,6.973547,46.360438
1860,Aigle,Waadt,VD,Schweiz,CH,6.97238769887415,46.3150303341402
1862,La Comballaz,Waadt,VD,Schweiz,CH,7.059209577,46.383669
1862,Les Mosses,Waadt,VD,Schweiz,CH,7.059209577,46.383669
1863,Le Sépey,Waadt,VD,Schweiz,CH,7.048468751,46.367055
1864,Vers-l'Eglise,Waadt,VD,Schweiz,CH,7.131035,46.353724
1865,Les Diablerets,Waadt,VD,Schweiz,CH,7.231071452,46.293055
1866,La Forclaz VD,Waadt,VD,Schweiz,CH,7.071397,46.351873
1867,St-Triphon,Waadt,VD,Schweiz,CH,7.020185394,46.295976
1867,Panex,Waadt,VD,Schweiz,CH,7.020185394,46.295976
1867,Ollon VD,Waadt,VD,Schweiz,CH,7.020185394,46.295976
1868,Collombey,Wallis,VS,Schweiz,CH,6.952067357,46.263243
1869,Massongex,Wallis,VS,Schweiz,CH,6.98244428503927,46.2345234374424
1870,Monthey,Wallis,VS,Schweiz,CH,6.91518402825841,46.2404033100863
1871,Choëx,Wallis,VS,Schweiz,CH,6.954794,46.238503
1871,Les Giettes,Wallis,VS,Schweiz,CH,6.954794,46.238503
1872,Troistorrents,Wallis,VS,Schweiz,CH,6.88523096888349,46.232821245311
1873,Champoussin,Wallis,VS,Schweiz,CH,6.8889404628174,46.1917016622255
1873,Les Crosets,Wallis,VS,Schweiz,CH,6.8889404628174,46.1917016622255
1873,Val-d'Illiez,Wallis,VS,Schweiz,CH,6.8889404628174,46.1917016622255
1874,Champéry,Wallis,VS,Schweiz,CH,6.84582755153611,46.1587931168903
1875,Morgins,Wallis,VS,Schweiz,CH,6.849532594,46.232878
1880,Fenalet-sur-Bex,Waadt,VD,Schweiz,CH,7.08896681948392,46.255610852674
1880,Frenières-sur-Bex,Waadt,VD,Schweiz,CH,7.08896681948392,46.255610852674
1880,Les Plans-sur-Bex,Waadt,VD,Schweiz,CH,7.08896681948392,46.255610852674
1880,Bex,Waadt,VD,Schweiz,CH,7.08896681948392,46.255610852674
1882,Les Posses-sur-Bex,Waadt,VD,Schweiz,CH,7.094726,46.279418
1882,Gryon,Waadt,VD,Schweiz,CH,7.094726,46.279418
1884,Huémoz,Waadt,VD,Schweiz,CH,7.008927838,46.280989
1884,Arveyes,Waadt,VD,Schweiz,CH,7.008927838,46.280989
1884,Villars-sur-Ollon,Waadt,VD,Schweiz,CH,7.008927838,46.280989
1885,Chesières,Waadt,VD,Schweiz,CH,7.055851484,46.299236
1890,Mex VS,Wallis,VS,Schweiz,CH,7.009492,46.198071
1890,St-Maurice,Wallis,VS,Schweiz,CH,7.009492,46.198071
1891,Vérossaz,Wallis,VS,Schweiz,CH,6.96658,46.20116
1892,Lavey-les-Bains,Waadt,VD,Schweiz,CH,7.042982957,46.199861
1892,Morcles,Waadt,VD,Schweiz,CH,7.042982957,46.199861
1892,Lavey-Village,Waadt,VD,Schweiz,CH,7.042982957,46.199861
1893,Muraz (Collombey),Wallis,VS,Schweiz,CH,6.926319,46.279117
1895,Vionnaz,Wallis,VS,Schweiz,CH,6.87128356619186,46.3077592728381
1896,Miex,Wallis,VS,Schweiz,CH,6.84917415224904,46.3359653249665
1896,Vouvry,Wallis,VS,Schweiz,CH,6.84917415224904,46.3359653249665
1897,Les Evouettes,Wallis,VS,Schweiz,CH,6.859508,46.367655
1897,Bouveret,Wallis,VS,Schweiz,CH,6.859508,46.367655
1898,St-Gingolph,Wallis,VS,Schweiz,CH,6.804453,46.370151
1899,Torgon,Wallis,VS,Schweiz,CH,6.87658,46.320309
1902,Evionnaz,Wallis,VS,Schweiz,CH,6.94812914173091,46.1482098967208
1903,Collonges,Wallis,VS,Schweiz,CH,7.050894,46.173387
1904,Vernayaz,Wallis,VS,Schweiz,CH,7.03186737321256,46.1380445788008
1905,Dorénaz,Wallis,VS,Schweiz,CH,7.057486,46.1511
1906,Charrat,Wallis,VS,Schweiz,CH,7.13673498543128,46.121335969519
1907,Saxon,Wallis,VS,Schweiz,CH,7.18429008060084,46.1362597717727
1908,Riddes,Wallis,VS,Schweiz,CH,7.23799453866887,46.143015637752
1911,Mayens-de-Chamoson,Wallis,VS,Schweiz,CH,7.165307297,46.198505
1911,Ovronnaz,Wallis,VS,Schweiz,CH,7.165307297,46.198505
1912,Produit (Leytron),Wallis,VS,Schweiz,CH,7.15587252438348,46.2001958200479
1912,Montagnon (Leytron),Wallis,VS,Schweiz,CH,7.15587252438348,46.2001958200479
1912,Dugny (Leytron),Wallis,VS,Schweiz,CH,7.15587252438348,46.2001958200479
1912,Leytron,Wallis,VS,Schweiz,CH,7.15587252438348,46.2001958200479
1913,Saillon,Wallis,VS,Schweiz,CH,7.15866424941812,46.1774978663888
1914,Auddes-sur-Riddes,Wallis,VS,Schweiz,CH,7.259091,46.149152
1914,Isérables,Wallis,VS,Schweiz,CH,7.259091,46.149152
1918,La Tzoumaz,Wallis,VS,Schweiz,CH,7.232991,46.144805
1920,Martigny,Wallis,VS,Schweiz,CH,7.08083253193464,46.1072295155922
1921,Martigny-Croix,Wallis,VS,Schweiz,CH,7.100299539,46.082144
1922,Les Granges (Salvan),Wallis,VS,Schweiz,CH,6.95978773094955,46.1102712417718
1922,Salvan,Wallis,VS,Schweiz,CH,6.95978773094955,46.1102712417718
1923,Le Trétien,Wallis,VS,Schweiz,CH,6.998923968,46.119519
1923,Les Marécottes,Wallis,VS,Schweiz,CH,6.998923968,46.119519
1925,Le Châtelard VS,Wallis,VS,Schweiz,CH,6.946639,46.071529
1925,Finhaut,Wallis,VS,Schweiz,CH,6.946639,46.071529
1926,Fully,Wallis,VS,Schweiz,CH,7.11174358185969,46.1575275907993
1927,Chemin,Wallis,VS,Schweiz,CH,7.102810005,46.077431
1928,Ravoire,Wallis,VS,Schweiz,CH,7.044956,46.095956
1929,Trient,Wallis,VS,Schweiz,CH,6.998798,46.039548
1932,Les Valettes (Bovernier),Wallis,VS,Schweiz,CH,7.082431,46.06419
1932,Bovernier,Wallis,VS,Schweiz,CH,7.082431,46.06419
1933,Vens (Sembrancher),Wallis,VS,Schweiz,CH,7.14564936469155,46.0693742647361
1933,Chamoille (Sembrancher),Wallis,VS,Schweiz,CH,7.14564936469155,46.0693742647361
1933,La Garde (Sembrancher),Wallis,VS,Schweiz,CH,7.14564936469155,46.0693742647361
1933,Sembrancher,Wallis,VS,Schweiz,CH,7.14564936469155,46.0693742647361
1934,Bruson,Wallis,VS,Schweiz,CH,7.215096587,46.067126
1934,Cotterg (Le Châble VS),Wallis,VS,Schweiz,CH,7.215096587,46.067126
1934,Villette (Le Châble VS),Wallis,VS,Schweiz,CH,7.215096587,46.067126
1934,Fontenelle (Le Châble VS),Wallis,VS,Schweiz,CH,7.215096587,46.067126
1934,Montagnier (Le Châble VS),Wallis,VS,Schweiz,CH,7.215096587,46.067126
1934,Le Châble VS,Wallis,VS,Schweiz,CH,7.215096587,46.067126
1936,Verbier,Wallis,VS,Schweiz,CH,7.225280581,46.100141
1937,Orsières,Wallis,VS,Schweiz,CH,7.10139776078339,45.9722524713549
1938,Champex-Lac,Wallis,VS,Schweiz,CH,7.113064917,46.036265
1941,Cries (Vollèges),Wallis,VS,Schweiz,CH,7.156268,46.092184
1941,Vollèges,Wallis,VS,Schweiz,CH,7.156268,46.092184
1942,Levron,Wallis,VS,Schweiz,CH,9.266452,47.512984
1943,Praz-de-Fort,Wallis,VS,Schweiz,CH,7.140611582,45.980514
1944,La Fouly VS,Wallis,VS,Schweiz,CH,7.104615,45.916726
1945,Liddes,Wallis,VS,Schweiz,CH,7.188409,45.980234
1945,Fontaine Dessus (Liddes),Wallis,VS,Schweiz,CH,7.188409,45.980234
1945,Fontaine Dessous (Liddes),Wallis,VS,Schweiz,CH,7.188409,45.980234
1945,Dranse (Liddes),Wallis,VS,Schweiz,CH,7.188409,45.980234
1945,Chandonne (Liddes),Wallis,VS,Schweiz,CH,7.188409,45.980234
1945,Rive Haute (Liddes),Wallis,VS,Schweiz,CH,7.188409,45.980234
1945,Fornex (Liddes),Wallis,VS,Schweiz,CH,7.188409,45.980234
1945,Les Moulins VS (Liddes),Wallis,VS,Schweiz,CH,7.188409,45.980234
1945,Vichères (Liddes),Wallis,VS,Schweiz,CH,7.188409,45.980234
1945,Palasuit (Liddes),Wallis,VS,Schweiz,CH,7.188409,45.980234
1945,Chez Petit (Liddes),Wallis,VS,Schweiz,CH,7.188409,45.980234
1945,Petit Vichères (Liddes),Wallis,VS,Schweiz,CH,7.188409,45.980234
1946,Bourg-St-Pierre,Wallis,VS,Schweiz,CH,7.210719,45.923083
1947,Prarreyer (Versegères),Wallis,VS,Schweiz,CH,7.233223,46.066042
1947,Les Places (Versegères),Wallis,VS,Schweiz,CH,7.233223,46.066042
1947,La Montoz (Versegères),Wallis,VS,Schweiz,CH,7.233223,46.066042
1947,Champsec (Versegères),Wallis,VS,Schweiz,CH,7.233223,46.066042
1947,Le Fregnoley (Versegères),Wallis,VS,Schweiz,CH,7.233223,46.066042
1947,Versegères,Wallis,VS,Schweiz,CH,7.233223,46.066042
1948,Lourtier,Wallis,VS,Schweiz,CH,7.294589825,46.033925
1948,Fionnay,Wallis,VS,Schweiz,CH,7.294589825,46.033925
1948,Sarreyer,Wallis,VS,Schweiz,CH,7.294589825,46.033925
1948,Le Planchamp (Lourtier),Wallis,VS,Schweiz,CH,7.294589825,46.033925
1948,Le Morgnes (Lourtier),Wallis,VS,Schweiz,CH,7.294589825,46.033925
1950,Sion,Wallis,VS,Schweiz,CH,7.36598627976602,46.2304362688857
1955,St-Pierre-de-Clages,Wallis,VS,Schweiz,CH,7.19706042661913,46.2150441033894
1955,Les Vérines (Chamoson),Wallis,VS,Schweiz,CH,7.19706042661913,46.2150441033894
1955,Némiaz (Chamoson),Wallis,VS,Schweiz,CH,7.19706042661913,46.2150441033894
1955,Grugnay (Chamoson),Wallis,VS,Schweiz,CH,7.19706042661913,46.2150441033894
1955,Chamoson,Wallis,VS,Schweiz,CH,7.19706042661913,46.2150441033894
1957,Ardon,Wallis,VS,Schweiz,CH,7.23785503721863,46.2300655638059
1958,Uvrier,Wallis,VS,Schweiz,CH,7.425407,46.255381
1958,St-Léonard,Wallis,VS,Schweiz,CH,7.425407,46.255381
1961,Vernamiège,Wallis,VS,Schweiz,CH,7.434863,46.21101
1962,Pont-de-la-Morge (Sion),Wallis,VS,Schweiz,CH,7.30919,46.224655
1963,Vétroz,Wallis,VS,Schweiz,CH,7.27057081369587,46.2258279941062
1964,Conthey,Wallis,VS,Schweiz,CH,7.25472870494885,46.2724995424242
1965,Chandolin-près-Savièse,Wallis,VS,Schweiz,CH,7.31139167255512,46.3093424630915
1965,Drône VS,Wallis,VS,Schweiz,CH,7.31139167255512,46.3093424630915
1965,Roumaz (Savièse),Wallis,VS,Schweiz,CH,7.31139167255512,46.3093424630915
1965,Granois (Savièse),Wallis,VS,Schweiz,CH,7.31139167255512,46.3093424630915
1965,St-Germain (Savièse),Wallis,VS,Schweiz,CH,7.31139167255512,46.3093424630915
1965,Ormône (Savièse),Wallis,VS,Schweiz,CH,7.31139167255512,46.3093424630915
1965,Mayens-de-la-Zour (Savièse),Wallis,VS,Schweiz,CH,7.31139167255512,46.3093424630915
1965,Monteiller-Savièse,Wallis,VS,Schweiz,CH,7.31139167255512,46.3093424630915
1965,Savièse,Wallis,VS,Schweiz,CH,7.31139167255512,46.3093424630915
1966,Signèse (Ayent),Wallis,VS,Schweiz,CH,7.41023661968351,46.3279592887358
1966,Fortunau (Ayent),Wallis,VS,Schweiz,CH,7.41023661968351,46.3279592887358
1966,Luc (Ayent),Wallis,VS,Schweiz,CH,7.41023661968351,46.3279592887358
1966,St-Romain (Ayent),Wallis,VS,Schweiz,CH,7.41023661968351,46.3279592887358
1966,Saxonne (Ayent),Wallis,VS,Schweiz,CH,7.41023661968351,46.3279592887358
1966,Villa (Ayent),Wallis,VS,Schweiz,CH,7.41023661968351,46.3279592887358
1966,La Place (Ayent),Wallis,VS,Schweiz,CH,7.41023661968351,46.3279592887358
1966,Botyre (Ayent),Wallis,VS,Schweiz,CH,7.41023661968351,46.3279592887358
1966,Blignoud (Ayent),Wallis,VS,Schweiz,CH,7.41023661968351,46.3279592887358
1966,Argnoud (Ayent),Wallis,VS,Schweiz,CH,7.41023661968351,46.3279592887358
1967,Bramois,Wallis,VS,Schweiz,CH,7.398838677,46.233583
1968,Mase,Wallis,VS,Schweiz,CH,7.458064,46.193562
1969,Liez (St-Martin),Wallis,VS,Schweiz,CH,7.457268,46.158064
1969,Trogne (St-Martin),Wallis,VS,Schweiz,CH,7.457268,46.158064
1969,Suen (St-Martin),Wallis,VS,Schweiz,CH,7.457268,46.158064
1969,Eison (St.Martin),Wallis,VS,Schweiz,CH,7.457268,46.158064
1969,St-Martin VS,Wallis,VS,Schweiz,CH,7.457268,46.158064
1971,Champlan (Grimisuat),Wallis,VS,Schweiz,CH,7.38085926342832,46.2559653078735
1971,Coméraz (Grimisuat),Wallis,VS,Schweiz,CH,7.38085926342832,46.2559653078735
1971,Grimisuat,Wallis,VS,Schweiz,CH,7.38085926342832,46.2559653078735
1972,Anzère,Wallis,VS,Schweiz,CH,7.400421,46.296981
1973,Nax,Wallis,VS,Schweiz,CH,7.47582,46.207798
1974,Arbaz,Wallis,VS,Schweiz,CH,7.375556,46.298611
1975,St-Séverin,Wallis,VS,Schweiz,CH,5.41122,50.530128
1976,Aven,Wallis,VS,Schweiz,CH,7.30761187,46.258117
1976,Daillon,Wallis,VS,Schweiz,CH,7.30761187,46.258117
1976,Erde,Wallis,VS,Schweiz,CH,7.30761187,46.258117
1977,Icogne,Wallis,VS,Schweiz,CH,7.454108,46.325077
1978,Lens,Wallis,VS,Schweiz,CH,7.45799162321994,46.2946774241447
1981,Vex,Wallis,VS,Schweiz,CH,7.39104955859594,46.1968511316461
1982,Euseigne,Wallis,VS,Schweiz,CH,7.414289686,46.16153
1983,Lana (Evolène),Wallis,VS,Schweiz,CH,7.50935262949362,46.0497893941921
1983,Evolène,Wallis,VS,Schweiz,CH,7.50935262949362,46.0497893941921
1984,Les Haudères,Wallis,VS,Schweiz,CH,7.519590746,46.083466
1985,La Sage,Wallis,VS,Schweiz,CH,7.515359,46.098297
1986,Arolla,Wallis,VS,Schweiz,CH,7.483709605,46.035958
1987,Mâche,Wallis,VS,Schweiz,CH,7.39563330730236,46.0887718067814
1987,Hérémence,Wallis,VS,Schweiz,CH,7.39563330730236,46.0887718067814
1988,Les Collons,Wallis,VS,Schweiz,CH,7.371336,46.181429
1988,Thyon,Wallis,VS,Schweiz,CH,7.371336,46.181429
1991,Arvillard (Salins),Wallis,VS,Schweiz,CH,7.35367564042666,46.2076239189484
1991,Pravidondaz (Salins),Wallis,VS,Schweiz,CH,7.35367564042666,46.2076239189484
1991,Turin (Salins),Wallis,VS,Schweiz,CH,7.35367564042666,46.2076239189484
1991,Misériez (Salins),Wallis,VS,Schweiz,CH,7.35367564042666,46.2076239189484
1991,Salins,Wallis,VS,Schweiz,CH,7.35367564042666,46.2076239189484
1992,Les Agettes,Wallis,VS,Schweiz,CH,7.368009,46.199086
1992,Les Mayens-de-Sion,Wallis,VS,Schweiz,CH,7.368009,46.199086
1992,La Vernaz (Les Agettes),Wallis,VS,Schweiz,CH,7.368009,46.199086
1992,Crête-à-l'Oeil(Les Agettes),Wallis,VS,Schweiz,CH,7.368009,46.199086
1993,Clèbes (Nendaz),Wallis,VS,Schweiz,CH,7.33797526284338,46.1972211610398
1993,Veysonnaz,Wallis,VS,Schweiz,CH,7.33797526284338,46.1972211610398
1994,Aproz (Nendaz),Wallis,VS,Schweiz,CH,7.318098208,46.198447
1996,Fey (Nendaz),Wallis,VS,Schweiz,CH,7.283129975,46.152039
1996,Beuson (Nendaz),Wallis,VS,Schweiz,CH,7.283129975,46.152039
1996,Baar (Nendaz),Wallis,VS,Schweiz,CH,7.283129975,46.152039
1996,Brignon (Nendaz),Wallis,VS,Schweiz,CH,7.283129975,46.152039
1996,Bioley-de-Brignon (Nendaz),Wallis,VS,Schweiz,CH,7.283129975,46.152039
1996,Bieudron (Nendaz),Wallis,VS,Schweiz,CH,7.283129975,46.152039
1996,Condémines (Nendaz),Wallis,VS,Schweiz,CH,7.283129975,46.152039
1996,Saclentz (Nendaz),Wallis,VS,Schweiz,CH,7.283129975,46.152039
1996,Basse-Nendaz,Wallis,VS,Schweiz,CH,7.283129975,46.152039
1997,Siviez (Nendaz),Wallis,VS,Schweiz,CH,7.315865,46.136053
1997,Haute-Nendaz,Wallis,VS,Schweiz,CH,7.315865,46.136053
2000,Neuchâtel,Neuenburg,NE,Schweiz,CH,6.93809901043948,47.0094204187151
2012,Auvernier,Neuenburg,NE,Schweiz,CH,6.87868584824922,46.9775001987691
2013,Colombier NE,Neuenburg,NE,Schweiz,CH,6.860917,46.96958
2014,Bôle,Neuenburg,NE,Schweiz,CH,6.83713041328493,46.9688700472173
2015,Areuse,Neuenburg,NE,Schweiz,CH,6.857165,46.957225
2016,Cortaillod,Neuenburg,NE,Schweiz,CH,6.8479170115056,46.9440087346028
2017,Boudry,Neuenburg,NE,Schweiz,CH,6.80774678069091,46.9531139847952
2019,Chambrelien,Neuenburg,NE,Schweiz,CH,6.803973,46.986265
2019,Rochefort,Neuenburg,NE,Schweiz,CH,6.803973,46.986265
2022,Bevaix,Neuenburg,NE,Schweiz,CH,6.80413029644675,46.9311629723119
2023,Gorgier,Neuenburg,NE,Schweiz,CH,6.76505564161927,46.9242472294643
2024,St-Aubin-Sauges,Neuenburg,NE,Schweiz,CH,6.755201,46.89986
2025,Chez-le-Bart,Neuenburg,NE,Schweiz,CH,6.782803345,46.900382
2027,Montalchez,Neuenburg,NE,Schweiz,CH,6.747247,46.886716
2027,Fresens,Neuenburg,NE,Schweiz,CH,6.747247,46.886716
2028,Vaumarcus,Neuenburg,NE,Schweiz,CH,6.745425,46.873294
2034,Peseux,Neuenburg,NE,Schweiz,CH,6.88948928453217,46.9955521627659
2035,Corcelles NE,Neuenburg,NE,Schweiz,CH,6.875569,46.985117
2036,Cormondrèche,Neuenburg,NE,Schweiz,CH,6.869562,46.98055
2037,Montmollin,Neuenburg,NE,Schweiz,CH,6.831644,47.000457
2037,Montezillon,Neuenburg,NE,Schweiz,CH,6.831644,47.000457
2042,Valangin,Neuenburg,NE,Schweiz,CH,6.902546,46.953292
2043,Boudevilliers,Neuenburg,NE,Schweiz,CH,6.881124,47.031
2046,Fontaines NE,Neuenburg,NE,Schweiz,CH,6.874298,47.060726
2052,La Vue-des-Alpes,Neuenburg,NE,Schweiz,CH,6.88378385242542,47.0591214682621
2052,Fontainemelon,Neuenburg,NE,Schweiz,CH,6.88378385242542,47.0591214682621
2053,Cernier,Neuenburg,NE,Schweiz,CH,6.90062002859808,47.0761845229843
2054,Les Vieux-Prés,Neuenburg,NE,Schweiz,CH,6.925595,47.072854
2054,Chézard-St-Martin,Neuenburg,NE,Schweiz,CH,6.925595,47.072854
2056,Dombresson,Neuenburg,NE,Schweiz,CH,6.95338624357233,47.0844971321264
2057,Villiers,Neuenburg,NE,Schweiz,CH,6.993208,47.089123
2058,Le Pâquier NE,Neuenburg,NE,Schweiz,CH,6.989688,47.106986
2063,Engollon,Neuenburg,NE,Schweiz,CH,6.930508,47.026029
2063,Fenin,Neuenburg,NE,Schweiz,CH,6.930508,47.026029
2063,Saules,Neuenburg,NE,Schweiz,CH,6.930508,47.026029
2063,Vilars NE,Neuenburg,NE,Schweiz,CH,6.930508,47.026029
2065,Savagnier,Neuenburg,NE,Schweiz,CH,6.956586,47.050346
2067,Chaumont,Neuenburg,NE,Schweiz,CH,6.94971554,47.012327
2068,Hauterive NE,Neuenburg,NE,Schweiz,CH,6.922689,47.015268
2072,St-Blaise,Neuenburg,NE,Schweiz,CH,6.988657,47.024492
2073,Enges,Neuenburg,NE,Schweiz,CH,7.009513,47.064741
2074,Marin-Epagnier,Neuenburg,NE,Schweiz,CH,7.01210102531288,47.0092695881802
2075,Thielle,Neuenburg,NE,Schweiz,CH,7.020211,47.019356
2075,Wavre,Neuenburg,NE,Schweiz,CH,7.020211,47.019356
2087,Cornaux NE,Neuenburg,NE,Schweiz,CH,7.013854,47.032614
2088,Cressier NE,Neuenburg,NE,Schweiz,CH,7.024022,47.050519
2103,Noiraigue,Neuenburg,NE,Schweiz,CH,6.724971,46.953189
2105,Travers,Neuenburg,NE,Schweiz,CH,6.6778608423398,46.9486553312103
2108,Couvet,Neuenburg,NE,Schweiz,CH,6.63053639922068,46.9340283039773
2112,Môtiers NE,Neuenburg,NE,Schweiz,CH,6.562438,46.903988
2113,Boveresse,Neuenburg,NE,Schweiz,CH,6.588505,46.928314
2114,Fleurier,Neuenburg,NE,Schweiz,CH,6.58982927071508,46.895223057801
2115,Buttes,Neuenburg,NE,Schweiz,CH,6.53501867814469,46.8835677835203
2116,Mont-de-Buttes,Neuenburg,NE,Schweiz,CH,6.510081,46.877765
2117,La Côte-aux-Fées,Neuenburg,NE,Schweiz,CH,6.48751012129851,46.8631039255121
2123,St-Sulpice NE,Neuenburg,NE,Schweiz,CH,6.545915,46.920936
2124,Les Sagnettes,Neuenburg,NE,Schweiz,CH,6.593202,46.938641
2126,Les Verrières,Neuenburg,NE,Schweiz,CH,6.47497278098639,46.9149597725
2127,Les Bayards,Neuenburg,NE,Schweiz,CH,8.577898,47.540912
2149,Champ-du-Moulin,Neuenburg,NE,Schweiz,CH,6.757977,46.960221
2149,Fretereules,Neuenburg,NE,Schweiz,CH,6.757977,46.960221
2149,Brot-Dessous,Neuenburg,NE,Schweiz,CH,6.757977,46.960221
2206,Les Geneveys-sur-Coffrane,Neuenburg,NE,Schweiz,CH,6.847644,47.021641
2207,Coffrane,Neuenburg,NE,Schweiz,CH,6.850036,47.009363
2208,Les Hauts-Geneveys,Neuenburg,NE,Schweiz,CH,6.863913,47.050709
2300,La Chaux-de-Fonds,Neuenburg,NE,Schweiz,CH,6.83338409663558,47.1101667678658
2300,La Cibourg,Neuenburg,NE,Schweiz,CH,6.83338409663558,47.1101667678658
2314,La Sagne NE,Neuenburg,NE,Schweiz,CH,6.801457,47.047069
2316,Petit-Martel,Neuenburg,NE,Schweiz,CH,6.730192,46.997312
2316,Les Ponts-de-Martel,Neuenburg,NE,Schweiz,CH,6.730192,46.997312
2318,Brot-Plamboz,Neuenburg,NE,Schweiz,CH,6.750701,46.984783
2322,Le Crêt-du-Locle,Neuenburg,NE,Schweiz,CH,6.783163,47.077867
2325,Les Planchettes,Neuenburg,NE,Schweiz,CH,6.768187,47.107605
2325,Les Joux-Derrière,Neuenburg,NE,Schweiz,CH,6.768187,47.107605
2333,La Cibourg,Bern,BE,Schweiz,CH,6.893077,47.143308
2333,La Ferrière,Bern,BE,Schweiz,CH,6.893077,47.143308
2336,Les Bois,Jura,JU,Schweiz,CH,6.89825059107435,47.1795000246427
2338,Les Emibois,Jura,JU,Schweiz,CH,6.986145,47.223004
2338,Muriaux,Jura,JU,Schweiz,CH,6.986145,47.223004
2340,Le Noirmont,Jura,JU,Schweiz,CH,6.94412462517071,47.2136619968618
2345,Le Cerneux-Veusil,Jura,JU,Schweiz,CH,7.00255618416597,47.2051820103942
2345,La Chaux-des-Breuleux,Jura,JU,Schweiz,CH,7.00255618416597,47.2051820103942
2345,Les Breuleux,Jura,JU,Schweiz,CH,7.00255618416597,47.2051820103942
2350,Saignelégier,Jura,JU,Schweiz,CH,7.01999233515144,47.2458312017714
2353,Les Pommerats,Jura,JU,Schweiz,CH,6.986217,47.273598
2354,Goumois,Jura,JU,Schweiz,CH,6.959292,47.267305
2360,Le Bémont,Jura,JU,Schweiz,CH,#NV,#NV
2362,Montfavergier,Jura,JU,Schweiz,CH,#NV,#NV
2362,Montfaucon,Jura,JU,Schweiz,CH,#NV,#NV
2363,Les Enfers,Jura,JU,Schweiz,CH,#NV,#NV
2364,St-Brais,Jura,JU,Schweiz,CH,#NV,#NV
2400,Le Prévoux,Neuenburg,NE,Schweiz,CH,6.74815505326675,47.0531778893492
2400,Le Locle,Neuenburg,NE,Schweiz,CH,6.74815505326675,47.0531778893492
2405,La Chaux-du-Milieu,Neuenburg,NE,Schweiz,CH,6.694585,47.005931
2406,Le Brouillet,Neuenburg,NE,Schweiz,CH,6.58274868635869,46.9682159768075
2406,Les Taillères,Neuenburg,NE,Schweiz,CH,6.58274868635869,46.9682159768075
2406,La Châtagne,Neuenburg,NE,Schweiz,CH,6.58274868635869,46.9682159768075
2406,La Brévine,Neuenburg,NE,Schweiz,CH,6.58274868635869,46.9682159768075
2414,Le Cerneux-Péquignot,Neuenburg,NE,Schweiz,CH,6.666785,47.013594
2416,Les Brenets,Neuenburg,NE,Schweiz,CH,6.72476695889559,47.0748037149461
2500,Biel/Bienne,Bern,BE,Schweiz,CH,7.29099,47.14706
2502,Biel/Bienne,Bern,BE,Schweiz,CH,#NV,#NV
2503,Biel/Bienne,Bern,BE,Schweiz,CH,#NV,#NV
2504,Biel/Bienne,Bern,BE,Schweiz,CH,#NV,#NV
2505,Biel/Bienne,Bern,BE,Schweiz,CH,#NV,#NV
2512,Tüscherz-Alfermée,Bern,BE,Schweiz,CH,7.197346,47.122351
2513,Twann,Bern,BE,Schweiz,CH,7.16019146631541,47.1031203618999
2514,Ligerz,Bern,BE,Schweiz,CH,7.144994,47.089107
2515,Prêles,Bern,BE,Schweiz,CH,7.122924,47.150809
2516,Lamboing,Bern,BE,Schweiz,CH,7.15565170486821,47.1271618085218
2517,Diesse,Bern,BE,Schweiz,CH,7.117711,47.118193
2518,Nods,Bern,BE,Schweiz,CH,7.083118,47.121357
2520,La Neuveville,Bern,BE,Schweiz,CH,7.10165122688445,47.0753039086107
2523,Lignières,Neuenburg,NE,Schweiz,CH,7.05063280149499,47.0912351385573
2525,Le Landeron,Neuenburg,NE,Schweiz,CH,7.05748792257846,47.064389757126
2532,Magglingen/Macolin,Bern,BE,Schweiz,CH,7.218417,47.141664
2533,Evilard,Bern,BE,Schweiz,CH,7.22098674530265,47.1455816423758
2534,Les Prés-d'Orvin,Bern,BE,Schweiz,CH,7.19311994392559,47.1562474376673
2534,Orvin,Bern,BE,Schweiz,CH,7.19311994392559,47.1562474376673
2535,Frinvillier,Bern,BE,Schweiz,CH,7.257512,47.169215
2536,Plagne,Bern,BE,Schweiz,CH,7.276413,47.188382
2537,Vauffelin,Bern,BE,Schweiz,CH,7.29684,47.185467
2538,Romont BE,Bern,BE,Schweiz,CH,7.30166,47.196888
2540,Grenchen,Solothurn,SO,Schweiz,CH,7.38752970617776,47.197181382932
2542,Pieterlen,Bern,BE,Schweiz,CH,7.3280082346103,47.1738701309058
2543,Lengnau BE,Bern,BE,Schweiz,CH,7.363152,47.181247
2544,Bettlach,Solothurn,SO,Schweiz,CH,7.41884112741351,47.2085513487152
2545,Selzach,Solothurn,SO,Schweiz,CH,7.44839621799133,47.2172325153786
2552,Orpund,Bern,BE,Schweiz,CH,7.30311857386299,47.1418039384705
2553,Safnern,Bern,BE,Schweiz,CH,7.32192106356554,47.1523035505132
2554,Meinisberg,Bern,BE,Schweiz,CH,7.35266830237557,47.1614154033652
2555,Brügg BE,Bern,BE,Schweiz,CH,7.277114,47.126608
2556,Scheuren,Bern,BE,Schweiz,CH,7.314355,47.121929
2556,Schwadernau,Bern,BE,Schweiz,CH,7.314355,47.121929
2557,Studen BE,Bern,BE,Schweiz,CH,7.298819,47.109917
2558,Aegerten,Bern,BE,Schweiz,CH,7.28508874658352,47.1171442745316
2560,Nidau,Bern,BE,Schweiz,CH,7.2408670421196,47.1243446144784
2562,Port,Bern,BE,Schweiz,CH,7.25890327678063,47.1141110139621
2563,Ipsach,Bern,BE,Schweiz,CH,7.23182269744843,47.1150459401421
2564,Bellmund,Bern,BE,Schweiz,CH,7.24318544672274,47.10287766597
2565,Jens,Bern,BE,Schweiz,CH,7.267667,47.096909
2572,Mörigen,Bern,BE,Schweiz,CH,7.212937,47.084052
2572,Sutz,Bern,BE,Schweiz,CH,7.212937,47.084052
2575,Hagneck,Bern,BE,Schweiz,CH,7.19781356895926,47.0652733831797
2575,Gerolfingen,Bern,BE,Schweiz,CH,7.19781356895926,47.0652733831797
2575,Täuffelen,Bern,BE,Schweiz,CH,7.19781356895926,47.0652733831797
2576,Lüscherz,Bern,BE,Schweiz,CH,7.154039,47.043249
2577,Finsterhennen,Bern,BE,Schweiz,CH,7.178946,47.017191
2577,Siselen BE,Bern,BE,Schweiz,CH,7.178946,47.017191
2603,Péry,Bern,BE,Schweiz,CH,7.26330585308814,47.1986962934037
2604,La Heutte,Bern,BE,Schweiz,CH,7.218523,47.188501
2605,Sonceboz-Sombeval,Bern,BE,Schweiz,CH,7.17847046363448,47.1915379448258
2606,Corgémont,Bern,BE,Schweiz,CH,7.13858353518525,47.1910721272291
2607,Cortébert,Bern,BE,Schweiz,CH,7.107801,47.174833
2608,Montagne-de-Courtelary,Bern,BE,Schweiz,CH,7.0726536659126,47.1764536984685
2608,Courtelary,Bern,BE,Schweiz,CH,7.0726536659126,47.1764536984685
2610,Mont-Soleil,Bern,BE,Schweiz,CH,6.988854,47.151094
2610,Mont-Crosin,Bern,BE,Schweiz,CH,6.988854,47.151094
2610,Les Pontins,Bern,BE,Schweiz,CH,6.988854,47.151094
2610,St-Imier,Bern,BE,Schweiz,CH,6.988854,47.151094
2612,Cormoret,Bern,BE,Schweiz,CH,7.046914,47.164468
2613,Villeret,Bern,BE,Schweiz,CH,7.022792,47.16237
2615,Montagne-de-Sonvilier,Bern,BE,Schweiz,CH,6.952242,47.138715
2615,Sonvilier,Bern,BE,Schweiz,CH,6.952242,47.138715
2616,La Cibourg,Bern,BE,Schweiz,CH,6.869005,47.11319
2616,Renan BE,Bern,BE,Schweiz,CH,6.869005,47.11319
2710,Tavannes,Bern,BE,Schweiz,CH,7.18377902912916,47.2213674274724
2712,Le Fuet,Bern,BE,Schweiz,CH,7.18281,47.243388
2713,Bellelay,Bern,BE,Schweiz,CH,7.166734561,47.268483
2714,Le Prédame,Jura,JU,Schweiz,CH,7.131295,47.257435
2714,Les Genevez JU,Jura,JU,Schweiz,CH,7.131295,47.257435
2715,Monible,Bern,BE,Schweiz,CH,7.185734,47.270148
2715,Châtelat,Bern,BE,Schweiz,CH,7.185734,47.270148
2716,Sornetan,Bern,BE,Schweiz,CH,7.217187,47.27114
2717,Fornet-Dessous,Bern,BE,Schweiz,CH,7.182592,47.284904
2717,Rebévelier,Bern,BE,Schweiz,CH,7.182592,47.284904
2718,Fornet-Dessus,Jura,JU,Schweiz,CH,7.104636,47.278861
2718,Lajoux JU,Jura,JU,Schweiz,CH,7.104636,47.278861
2720,La Tanne,Bern,BE,Schweiz,CH,7.09680166985545,47.2272406369004
2720,Tramelan,Bern,BE,Schweiz,CH,7.09680166985545,47.2272406369004
2722,Les Reussilles,Bern,BE,Schweiz,CH,7.083355,47.22462
2723,Mont-Tramelan,Bern,BE,Schweiz,CH,7.064316,47.202772
2732,Saicourt,Bern,BE,Schweiz,CH,7.2229828810059,47.2266644056848
2732,Saules BE,Bern,BE,Schweiz,CH,7.2229828810059,47.2266644056848
2732,Loveresse,Bern,BE,Schweiz,CH,7.2229828810059,47.2266644056848
2732,Reconvilier,Bern,BE,Schweiz,CH,7.2229828810059,47.2266644056848
2733,Pontenet,Bern,BE,Schweiz,CH,7.253908,47.249666
2735,Bévilard,Bern,BE,Schweiz,CH,7.285008,47.232017
2735,Champoz,Bern,BE,Schweiz,CH,7.285008,47.232017
2735,Malleray,Bern,BE,Schweiz,CH,7.285008,47.232017
2736,Sorvilier,Bern,BE,Schweiz,CH,7.306863,47.233042
2738,Court,Bern,BE,Schweiz,CH,7.35924074247397,47.2397551801888
2740,Moutier,Bern,BE,Schweiz,CH,7.36167127172505,47.2773811884181
2742,Perrefitte,Bern,BE,Schweiz,CH,7.321825,47.278215
2743,Eschert,Bern,BE,Schweiz,CH,7.40423,47.263485
2744,Belprahon,Bern,BE,Schweiz,CH,7.404268,47.288594
2745,Grandval,Bern,BE,Schweiz,CH,7.425376,47.283523
2746,Crémines,Bern,BE,Schweiz,CH,7.45199388844489,47.2853572618593
2747,Seehof,Bern,BE,Schweiz,CH,7.517976,47.301549
2747,Corcelles BE,Bern,BE,Schweiz,CH,7.517976,47.301549
2748,Souboz,Bern,BE,Schweiz,CH,7.255861,47.273817
2748,Les Ecorcheresses,Bern,BE,Schweiz,CH,7.255861,47.273817
2762,Roches BE,Bern,BE,Schweiz,CH,7.37378,47.301706
2800,Delémont,Jura,JU,Schweiz,CH,7.33292435291978,47.3751007597609
2802,Develier,Jura,JU,Schweiz,CH,7.28150120556307,47.3647168000139
2803,Bourrignon,Jura,JU,Schweiz,CH,7.250756,47.392968
2805,Soyhières,Jura,JU,Schweiz,CH,7.365186,47.398709
2806,Mettembert,Jura,JU,Schweiz,CH,7.324817,47.396686
2807,Lucelle,Jura,JU,Schweiz,CH,7.30973,47.415442
2807,Pleigne,Jura,JU,Schweiz,CH,7.30973,47.415442
2812,Movelier,Jura,JU,Schweiz,CH,7.317292,47.41042
2813,Ederswiler,Jura,JU,Schweiz,CH,7.333272,47.421108
2814,Roggenburg,Basel-Landschaft,BL,Schweiz,CH,7.354321,47.428278
2822,Courroux,Jura,JU,Schweiz,CH,7.39302763708919,47.3691948958316
2823,Courcelon,Jura,JU,Schweiz,CH,7.390955,47.36166
2824,Vicques,Jura,JU,Schweiz,CH,7.42702796282755,47.3509088710259
2825,Courchapoix,Jura,JU,Schweiz,CH,7.451775,47.348062
2826,Corban,Jura,JU,Schweiz,CH,7.472348,47.347203
2827,Schelten,Bern,BE,Schweiz,CH,7.55302,47.331277
2827,Mervelier,Jura,JU,Schweiz,CH,7.55302,47.331277
2828,Montsevelier,Jura,JU,Schweiz,CH,7.511823,47.356951
2829,Vermes,Jura,JU,Schweiz,CH,7.476983,47.322108
2830,Vellerat,Jura,JU,Schweiz,CH,7.37428031546987,47.3346656765149
2830,Courrendlin,Jura,JU,Schweiz,CH,7.37428031546987,47.3346656765149
2832,Rebeuvelier,Jura,JU,Schweiz,CH,7.417931,47.320793
2842,Rossemaison,Jura,JU,Schweiz,CH,7.343595,47.342631
2843,Châtillon JU,Jura,JU,Schweiz,CH,7.340727,47.319933
2852,Courtételle,Jura,JU,Schweiz,CH,7.31766191820802,47.330941521193
2853,Courfaivre,Jura,JU,Schweiz,CH,7.27974878845372,47.3299241703985
2854,Bassecourt,Jura,JU,Schweiz,CH,7.2407824850889,47.335134697252
2855,Glovelier,Jura,JU,Schweiz,CH,7.18444470977267,47.3269294105498
2856,Boécourt,Jura,JU,Schweiz,CH,7.22293548854846,47.3615282385376
2857,Montavon,Jura,JU,Schweiz,CH,7.236435,47.37232
2863,Undervelier,Jura,JU,Schweiz,CH,7.222253,47.300865
2864,Soulce,Jura,JU,Schweiz,CH,7.279942,47.297873
2873,Saulcy,Jura,JU,Schweiz,CH,7.153539,47.302493
2874,Montfavergier,Jura,JU,Schweiz,CH,7.084949,47.302961
2874,St-Brais,Jura,JU,Schweiz,CH,7.084949,47.302961
2875,Les Enfers,Jura,JU,Schweiz,CH,7.070246,47.273616
2875,Montfaucon,Jura,JU,Schweiz,CH,7.070246,47.273616
2877,Le Bémont JU,Jura,JU,Schweiz,CH,7.039008,47.259264
2882,St-Ursanne,Jura,JU,Schweiz,CH,7.15331,47.357747
2883,Montmelon,Jura,JU,Schweiz,CH,7.171072,47.358099
2884,Montenol,Jura,JU,Schweiz,CH,7.143755,47.349739
2885,Epauvillers,Jura,JU,Schweiz,CH,7.116267,47.337305
2886,Epiquerez,Jura,JU,Schweiz,CH,7.068824,47.326102
2887,Soubey,Jura,JU,Schweiz,CH,7.045637,47.306854
2888,Seleute,Jura,JU,Schweiz,CH,7.109186,47.362946
2889,Ocourt,Jura,JU,Schweiz,CH,7.073021,47.354908
2900,Porrentruy,Jura,JU,Schweiz,CH,7.07101393301901,47.4212987475724
2902,Fontenais,Jura,JU,Schweiz,CH,7.07681764913306,47.3877323740158
2903,Villars-sur Fontenais,Jura,JU,Schweiz,CH,7.080999,47.385514
2904,Bressaucourt,Jura,JU,Schweiz,CH,7.039055,47.383185
2905,Courtedoux,Jura,JU,Schweiz,CH,7.036178,47.412724
2906,Chevenez,Jura,JU,Schweiz,CH,6.99289776670901,47.3915226465018
2907,Rocourt,Jura,JU,Schweiz,CH,6.955768,47.385756
2908,Grandfontaine,Jura,JU,Schweiz,CH,6.933637,47.39147
2912,Roche-d'Or,Jura,JU,Schweiz,CH,6.954115,47.365451
2912,Réclère,Jura,JU,Schweiz,CH,6.954115,47.365451
2914,Damvant,Jura,JU,Schweiz,CH,6.897797,47.36807
2915,Bure,Jura,JU,Schweiz,CH,9.457086,47.303675
2916,Fahy,Jura,JU,Schweiz,CH,6.952857,47.417426
2922,Courchavon,Jura,JU,Schweiz,CH,7.04556,47.436636
2923,Courtemaîche,Jura,JU,Schweiz,CH,7.046949,47.458188
2924,Montignez,Jura,JU,Schweiz,CH,7.057063,47.48384
2925,Buix,Jura,JU,Schweiz,CH,7.028201,47.477201
2926,Boncourt,Jura,JU,Schweiz,CH,7.00761325287943,47.4879785586089
2932,Coeuve,Jura,JU,Schweiz,CH,7.095441,47.453325
2933,Damphreux,Jura,JU,Schweiz,CH,7.091707,47.26598
2933,Lugnez,Jura,JU,Schweiz,CH,7.091707,47.26598
2935,Beurnevésin,Jura,JU,Schweiz,CH,7.129588,47.489202
2942,Alle,Jura,JU,Schweiz,CH,7.12624860228041,47.4284136529836
2943,Vendlincourt,Jura,JU,Schweiz,CH,7.14873,47.451931
2944,Bonfol,Jura,JU,Schweiz,CH,7.15680605735864,47.4758461409567
2946,Miécourt,Jura,JU,Schweiz,CH,7.174225,47.431234
2947,Charmoille,Jura,JU,Schweiz,CH,7.212295,47.426859
2950,Courtemautruy,Jura,JU,Schweiz,CH,7.12186979919902,47.3929464134879
2950,Courgenay,Jura,JU,Schweiz,CH,7.12186979919902,47.3929464134879
2952,Cornol,Jura,JU,Schweiz,CH,7.16313505926039,47.404753673188
2953,Fregiécourt,Jura,JU,Schweiz,CH,7.192515,47.40891
2953,Pleujouse,Jura,JU,Schweiz,CH,7.192515,47.40891
2954,Asuel,Jura,JU,Schweiz,CH,7.205187,47.390934
3000,Bern,Bern,BE,Schweiz,CH,7.40645594615935,46.9476134401776
3004,Bern,Bern,BE,Schweiz,CH,7.40645594615935,46.9476134401776
3005,Bern,Bern,BE,Schweiz,CH,7.44864,46.93998
3006,Bern,Bern,BE,Schweiz,CH,7.46987,46.945221
3007,Bern,Bern,BE,Schweiz,CH,7.43985,46.93861
3008,Bern,Bern,BE,Schweiz,CH,7.41822,46.94363
3010,Bern,Bern,BE,Schweiz,CH,7.40645594615935,46.9476134401776
3011,Bern,Bern,BE,Schweiz,CH,7.40645594615935,46.9476134401776
3012,Bern,Bern,BE,Schweiz,CH,7.44001,46.948232
3013,Bern,Bern,BE,Schweiz,CH,7.44001,46.948232
3014,Bern,Bern,BE,Schweiz,CH,7.40645594615935,46.9476134401776
3015,Bern,Bern,BE,Schweiz,CH,7.44001,46.948232
3018,Bern,Bern,BE,Schweiz,CH,7.40645594615935,46.9476134401776
3019,Bern,Bern,BE,Schweiz,CH,7.337686,46.931272
3020,Bern,Bern,BE,Schweiz,CH,7.349005,46.943758
3027,Bern,Bern,BE,Schweiz,CH,7.40645594615935,46.9476134401776
3032,Hinterkappelen,Bern,BE,Schweiz,CH,7.388907288,46.966266
3033,Wohlen b. Bern,Bern,BE,Schweiz,CH,7.341256,46.982617
3034,Murzelen,Bern,BE,Schweiz,CH,7.316445,46.98164
3035,Frieswil,Bern,BE,Schweiz,CH,7.265462678,46.978476
3036,Detligen,Bern,BE,Schweiz,CH,7.27331,47.001705
3037,Herrenschwanden,Bern,BE,Schweiz,CH,7.41809,46.97803
3038,Kirchlindach,Bern,BE,Schweiz,CH,7.4157866186179,46.9984653484813
3042,Ortschwaben,Bern,BE,Schweiz,CH,7.402445,46.991721
3043,Uettligen,Bern,BE,Schweiz,CH,7.380972113,46.980313
3044,Innerberg,Bern,BE,Schweiz,CH,7.333100549,46.979016
3045,Meikirch,Bern,BE,Schweiz,CH,7.365878,47.00397
3046,Wahlendorf,Bern,BE,Schweiz,CH,7.336935,47.004169
3047,Bremgarten b. Bern,Bern,BE,Schweiz,CH,7.434629,46.974376
3048,Worblaufen,Bern,BE,Schweiz,CH,7.474210087,46.948693
3049,Säriswil,Bern,BE,Schweiz,CH,7.3342661,46.9917551
3052,Zollikofen,Bern,BE,Schweiz,CH,7.4524280357576,46.9942300906829
3053,Deisswil b. Münchenbuchsee,Bern,BE,Schweiz,CH,7.4485936950823,47.0181484839389
3053,Diemerswil,Bern,BE,Schweiz,CH,7.4485936950823,47.0181484839389
3053,Wiggiswil,Bern,BE,Schweiz,CH,7.4485936950823,47.0181484839389
3053,Lätti,Bern,BE,Schweiz,CH,7.4485936950823,47.0181484839389
3053,Münchenbuchsee,Bern,BE,Schweiz,CH,7.4485936950823,47.0181484839389
3054,Schüpfen,Bern,BE,Schweiz,CH,7.37466897545087,47.0357704331621
3063,Ittigen,Bern,BE,Schweiz,CH,7.4745184069046,46.9806336481438
3065,Bolligen,Bern,BE,Schweiz,CH,7.51363639197673,46.9831603669901
3066,Stettlen,Bern,BE,Schweiz,CH,7.52212556804583,46.9566367252455
3067,Boll,Bern,BE,Schweiz,CH,7.552048984,46.945895
3068,Utzigen,Bern,BE,Schweiz,CH,7.576668,46.952372
3072,Ostermundigen,Bern,BE,Schweiz,CH,7.49558716564349,46.9558973850061
3073,Gümligen,Bern,BE,Schweiz,CH,7.531282016,47.13098
3074,Muri b. Bern,Bern,BE,Schweiz,CH,7.49884,46.931454
3075,Rüfenacht BE,Bern,BE,Schweiz,CH,7.544254,46.927406
3076,Worb,Bern,BE,Schweiz,CH,7.57076697635791,46.9272395545543
3077,Enggistein,Bern,BE,Schweiz,CH,7.59649,46.932019
3078,Richigen,Bern,BE,Schweiz,CH,7.583361617,46.882212
3082,Schlosswil,Bern,BE,Schweiz,CH,7.612471,46.906611
3083,Trimstein,Bern,BE,Schweiz,CH,7.5748,46.902626
3084,Wabern,Bern,BE,Schweiz,CH,7.458777347,46.940719
3086,Englisberg,Bern,BE,Schweiz,CH,7.459328895,46.85176
3086,Zimmerwald,Bern,BE,Schweiz,CH,7.459328895,46.85176
3087,Niedermuhlern,Bern,BE,Schweiz,CH,7.460841,46.857627
3088,Oberbütschel,Bern,BE,Schweiz,CH,7.432574,46.817546
3088,Rüeggisberg,Bern,BE,Schweiz,CH,7.432574,46.817546
3089,Hinterfultigen,Bern,BE,Schweiz,CH,7.401964,46.837569
3095,Spiegel b. Bern,Bern,BE,Schweiz,CH,7.42556,46.9209
3096,Oberbalm,Bern,BE,Schweiz,CH,7.409022,46.865983
3097,Liebefeld,Bern,BE,Schweiz,CH,7.401241393,46.944076
3098,Köniz,Bern,BE,Schweiz,CH,7.39780644157529,46.9043165984511
3098,Schliern b. Köniz,Bern,BE,Schweiz,CH,7.39780644157529,46.9043165984511
3099,Rüti b. Riggisberg,Bern,BE,Schweiz,CH,7.456789,46.770671
3110,Münsingen,Bern,BE,Schweiz,CH,7.56089476888261,46.8760763420932
3111,Tägertschi,Bern,BE,Schweiz,CH,7.584784,46.87056
3112,Allmendingen b. Bern,Bern,BE,Schweiz,CH,7.521202,46.913624
3113,Rubigen,Bern,BE,Schweiz,CH,7.54492463440962,46.8996959561607
3114,Wichtrach,Bern,BE,Schweiz,CH,7.57944141188816,46.8452999489188
3115,Gerzensee,Bern,BE,Schweiz,CH,7.546094,46.846389
3116,Mühledorf BE,Bern,BE,Schweiz,CH,7.543826,46.800029
3116,Noflen BE,Bern,BE,Schweiz,CH,7.543826,46.800029
3116,Kirchdorf BE,Bern,BE,Schweiz,CH,7.543826,46.800029
3122,Kehrsatz,Bern,BE,Schweiz,CH,7.47155858955993,46.9121180400972
3123,Belp,Bern,BE,Schweiz,CH,7.5067525270641,46.8927087024629
3124,Belpberg,Bern,BE,Schweiz,CH,7.520565,46.865719
3125,Toffen,Bern,BE,Schweiz,CH,7.49238956323621,46.8588400036172
3126,Gelterfingen,Bern,BE,Schweiz,CH,7.495906,46.839328
3126,Kaufdorf,Bern,BE,Schweiz,CH,7.495906,46.839328
3127,Lohnstorf,Bern,BE,Schweiz,CH,7.51029785003217,46.8160032690114
3127,Mühlethurnen,Bern,BE,Schweiz,CH,7.51029785003217,46.8160032690114
3128,Kirchenthurnen,Bern,BE,Schweiz,CH,7.505082,46.822893
3128,Rümligen,Bern,BE,Schweiz,CH,7.505082,46.822893
3132,Riggisberg,Bern,BE,Schweiz,CH,7.46943781375417,46.8083395152144
3144,Gasel,Bern,BE,Schweiz,CH,7.401854,46.89995
3145,Niederscherli,Bern,BE,Schweiz,CH,7.379759494,46.882799
3147,Mittelhäusern,Bern,BE,Schweiz,CH,7.368507,46.876539
3148,Lanzenhäusern,Bern,BE,Schweiz,CH,7.347991,46.843541
3150,Schwarzenburg,Bern,BE,Schweiz,CH,7.342788359,46.845868
3152,Mamishaus,Bern,BE,Schweiz,CH,7.378855,46.80972
3153,Rüschegg Gambach,Bern,BE,Schweiz,CH,7.392719,46.779807
3154,Rüschegg Heubach,Bern,BE,Schweiz,CH,7.406947,46.78186
3155,Helgisried-Rohrbach,Bern,BE,Schweiz,CH,7.430354,46.814636
3156,Riffenmatt,Bern,BE,Schweiz,CH,7.347175834,46.767926
3157,Milken,Bern,BE,Schweiz,CH,7.359111,46.793094
3158,Guggisberg,Bern,BE,Schweiz,CH,7.34371,46.744697
3159,Riedstätt,Bern,BE,Schweiz,CH,7.313864811,46.783138
3172,Niederwangen b. Bern,Bern,BE,Schweiz,CH,7.380358,46.915275
3173,Oberwangen b. Bern,Bern,BE,Schweiz,CH,7.367527,46.90428
3174,Thörishaus,Bern,BE,Schweiz,CH,7.349417841,46.901395
3175,Flamatt,Freiburg,FR,Schweiz,CH,7.319625145,46.879339
3176,Neuenegg,Bern,BE,Schweiz,CH,7.29807788711219,46.9071161088283
3177,Laupen BE,Bern,BE,Schweiz,CH,7.242442,46.909876
3178,Bösingen,Freiburg,FR,Schweiz,CH,7.23580610598337,46.8840127442789
3179,Kriechenwil,Bern,BE,Schweiz,CH,7.222791,46.910791
3182,Ueberstorf,Freiburg,FR,Schweiz,CH,7.32640218050751,46.8694660512265
3183,Albligen,Bern,BE,Schweiz,CH,7.318044,46.851398
3184,Wünnewil,Freiburg,FR,Schweiz,CH,7.280598787,46.886637
3185,Schmitten FR,Freiburg,FR,Schweiz,CH,7.242022,46.846782
3186,Düdingen,Freiburg,FR,Schweiz,CH,7.19101182937966,46.8447407857849
3202,Frauenkappelen,Bern,BE,Schweiz,CH,7.33340891901699,46.9553505072883
3203,Mühleberg,Bern,BE,Schweiz,CH,7.27194094624402,46.9466152038754
3204,Rosshäusern,Bern,BE,Schweiz,CH,7.263085019,46.904065
3205,Gümmenen,Bern,BE,Schweiz,CH,7.22765522,46.931805
3206,Rizenbach,Bern,BE,Schweiz,CH,7.210972569,46.904464
3206,Ferenbalm,Bern,BE,Schweiz,CH,7.210972569,46.904464
3206,Biberen,Bern,BE,Schweiz,CH,7.210972569,46.904464
3206,Gammen,Bern,BE,Schweiz,CH,7.210972569,46.904464
3206,Wallenbuch,Freiburg,FR,Schweiz,CH,7.210972569,46.904464
3207,Wileroltigen,Bern,BE,Schweiz,CH,7.238004,46.971434
3207,Golaten,Bern,BE,Schweiz,CH,7.238004,46.971434
3208,Gurbrü,Bern,BE,Schweiz,CH,7.206759,46.957645
3210,Kerzers,Freiburg,FR,Schweiz,CH,7.19875527390238,46.981233936419
3212,Kleingurmels,Freiburg,FR,Schweiz,CH,7.171914945105,46.894082432754
3212,Gurmels,Freiburg,FR,Schweiz,CH,7.171914945105,46.894082432754
3213,Liebistorf,Freiburg,FR,Schweiz,CH,7.200979,46.892839
3213,Kleinbösingen,Freiburg,FR,Schweiz,CH,7.200979,46.892839
3214,Ulmiz,Freiburg,FR,Schweiz,CH,7.1981,46.928699
3215,Gempenach,Freiburg,FR,Schweiz,CH,7.16936,46.926529
3215,Büchslen,Freiburg,FR,Schweiz,CH,7.16936,46.926529
3215,Lurtigen,Freiburg,FR,Schweiz,CH,7.16936,46.926529
3216,Agriswil,Freiburg,FR,Schweiz,CH,7.178614,46.963442
3216,Ried b. Kerzers,Freiburg,FR,Schweiz,CH,7.178614,46.963442
3225,Müntschemier,Bern,BE,Schweiz,CH,7.1463689910789,46.994929032668
3226,Treiten,Bern,BE,Schweiz,CH,7.162739,47.006501
3232,Ins,Bern,BE,Schweiz,CH,7.10054431792814,46.9981313599931
3233,Tschugg,Bern,BE,Schweiz,CH,7.076657,47.023603
3234,Vinelz,Bern,BE,Schweiz,CH,7.116639,47.032627
3235,Erlach,Bern,BE,Schweiz,CH,7.0918574036827,47.0362269980052
3236,Gampelen,Bern,BE,Schweiz,CH,7.05576097621298,47.0056905560782
3237,Brüttelen,Bern,BE,Schweiz,CH,7.151076,47.023031
3238,Gals,Bern,BE,Schweiz,CH,7.0739,47.02784
3250,Lyss,Bern,BE,Schweiz,CH,7.31655486347368,47.0765427939
3251,Ruppoldsried,Bern,BE,Schweiz,CH,7.395477,47.08444
3251,Wengi b. Büren,Bern,BE,Schweiz,CH,7.395477,47.08444
3252,Worben,Bern,BE,Schweiz,CH,7.29653010452593,47.1007072528957
3253,Schnottwil,Solothurn,SO,Schweiz,CH,7.39119573145229,47.1087548108288
3254,Balm b. Messen,Solothurn,SO,Schweiz,CH,7.45031966373281,47.0905042854765
3254,Messen,Solothurn,SO,Schweiz,CH,7.45031966373281,47.0905042854765
3255,Rapperswil BE,Bern,BE,Schweiz,CH,7.396824,47.058318
3256,Dieterswil,Bern,BE,Schweiz,CH,7.444385,47.054388
3256,Bangerten b. Dieterswil,Bern,BE,Schweiz,CH,7.444385,47.054388
3256,Seewil,Bern,BE,Schweiz,CH,7.444385,47.054388
3257,Ammerzwil BE,Bern,BE,Schweiz,CH,7.35639623803563,47.0688695103673
3257,Grossaffoltern,Bern,BE,Schweiz,CH,7.35639623803563,47.0688695103673
3262,Suberg,Bern,BE,Schweiz,CH,7.329544257,47.04958
3263,Büetigen,Bern,BE,Schweiz,CH,7.33811,47.105591
3264,Diessbach b. Büren,Bern,BE,Schweiz,CH,7.363882,47.104293
3266,Wiler b. Seedorf,Bern,BE,Schweiz,CH,7.326722,47.056157
3267,Seedorf BE,Bern,BE,Schweiz,CH,7.312663,47.026663
3268,Lobsigen,Bern,BE,Schweiz,CH,7.295837,47.024688
3270,Aarberg,Bern,BE,Schweiz,CH,7.28296208057383,47.0461529643161
3271,Radelfingen b. Aarberg,Bern,BE,Schweiz,CH,7.268639,47.00338
3272,Epsach,Bern,BE,Schweiz,CH,7.224739,47.050023
3272,Walperswil,Bern,BE,Schweiz,CH,7.224739,47.050023
3273,Kappelen,Bern,BE,Schweiz,CH,7.273573,47.062856
3274,Hermrigen,Bern,BE,Schweiz,CH,7.244276,47.065096
3274,Bühl b. Aarberg,Bern,BE,Schweiz,CH,7.244276,47.065096
3274,Merzligen,Bern,BE,Schweiz,CH,7.244276,47.065096
3280,Meyriez,Freiburg,FR,Schweiz,CH,7.14296016288929,46.9359115159177
3280,Greng,Freiburg,FR,Schweiz,CH,7.14296016288929,46.9359115159177
3280,Murten,Freiburg,FR,Schweiz,CH,7.14296016288929,46.9359115159177
3282,Bargen BE,Bern,BE,Schweiz,CH,7.241203,47.033242
3283,Niederried b. Kallnach,Bern,BE,Schweiz,CH,7.21497570551719,47.015673200602
3283,Kallnach,Bern,BE,Schweiz,CH,7.21497570551719,47.015673200602
3284,Fräschels,Freiburg,FR,Schweiz,CH,7.212769,46.996302
3285,Galmiz,Freiburg,FR,Schweiz,CH,7.149876,46.957451
3286,Muntelier,Freiburg,FR,Schweiz,CH,7.134926,46.94018
3292,Busswil b. Büren,Bern,BE,Schweiz,CH,7.318919,47.099301
3293,Dotzigen,Bern,BE,Schweiz,CH,7.34867854413669,47.1259906287509
3294,Meienried,Bern,BE,Schweiz,CH,7.37064133084834,47.1417467336258
3294,Büren an der Aare,Bern,BE,Schweiz,CH,7.37064133084834,47.1417467336258
3295,Rüti b. Büren,Bern,BE,Schweiz,CH,7.410975,47.150885
3296,Arch,Bern,BE,Schweiz,CH,7.43415470943069,47.1655580529815
3297,Leuzigen,Bern,BE,Schweiz,CH,7.46662819802329,47.1709246286549
3298,Oberwil b. Büren,Bern,BE,Schweiz,CH,7.411072,47.128188
3302,Moosseedorf,Bern,BE,Schweiz,CH,7.48537444485167,47.0104395961907
3303,Zuzwil BE,Bern,BE,Schweiz,CH,7.5035728524581,47.0521498682898
3303,Ballmoos,Bern,BE,Schweiz,CH,7.5035728524581,47.0521498682898
3303,Münchringen,Bern,BE,Schweiz,CH,7.5035728524581,47.0521498682898
3303,Jegenstorf,Bern,BE,Schweiz,CH,7.5035728524581,47.0521498682898
3305,Iffwil,Bern,BE,Schweiz,CH,7.476191,47.062842
3305,Scheunen,Bern,BE,Schweiz,CH,7.476191,47.062842
3306,Etzelkofen,Bern,BE,Schweiz,CH,7.479481,47.0811
3307,Brunnenthal,Solothurn,SO,Schweiz,CH,7.466723,47.085442
3308,Grafenried,Bern,BE,Schweiz,CH,7.506948,47.074722
3309,Kernenried,Bern,BE,Schweiz,CH,7.548734,47.06676
3309,Zauggenried,Bern,BE,Schweiz,CH,7.548734,47.06676
3312,Fraubrunnen,Bern,BE,Schweiz,CH,7.53069480408505,47.0888759012474
3313,Büren zum Hof,Bern,BE,Schweiz,CH,7.509538,47.096998
3314,Schalunen,Bern,BE,Schweiz,CH,7.522374,47.111686
3315,Kräiligen,Bern,BE,Schweiz,CH,7.52988159085479,47.1368824141952
3315,Bätterkinden,Bern,BE,Schweiz,CH,7.52988159085479,47.1368824141952
3317,Limpach,Bern,BE,Schweiz,CH,7.476074,47.100709
3317,Mülchi,Bern,BE,Schweiz,CH,7.476074,47.100709
3322,Mattstetten,Bern,BE,Schweiz,CH,7.4996957619354,47.0222614190659
3322,Urtenen-Schönbühl,Bern,BE,Schweiz,CH,7.4996957619354,47.0222614190659
3323,Bäriswil BE,Bern,BE,Schweiz,CH,7.530333,47.014102
3324,Mötschwil,Bern,BE,Schweiz,CH,7.54327189630783,47.0417402772749
3324,Hindelbank,Bern,BE,Schweiz,CH,7.54327189630783,47.0417402772749
3325,Hettiswil b. Hindelbank,Bern,BE,Schweiz,CH,7.557546,47.031199
3326,Krauchthal,Bern,BE,Schweiz,CH,7.56236941241575,47.0096358114017
3360,Herzogenbuchsee,Bern,BE,Schweiz,CH,7.71378808307745,47.1946243188842
3362,Niederönz,Bern,BE,Schweiz,CH,7.68392543837423,47.1860568030278
3363,Oberönz,Bern,BE,Schweiz,CH,7.69023,47.173901
3365,Seeberg,Bern,BE,Schweiz,CH,7.674446,47.144624
3365,Grasswil,Bern,BE,Schweiz,CH,7.674446,47.144624
3366,Bettenhausen,Bern,BE,Schweiz,CH,7.705148,47.1656
3366,Bollodingen,Bern,BE,Schweiz,CH,7.705148,47.1656
3367,Ochlenberg,Bern,BE,Schweiz,CH,7.73051892841932,47.172626765767
3367,Thörigen,Bern,BE,Schweiz,CH,7.73051892841932,47.172626765767
3368,Bleienbach,Bern,BE,Schweiz,CH,7.753778,47.179135
3372,Wanzwil,Bern,BE,Schweiz,CH,7.691538,47.194208
3373,Heimenhausen,Bern,BE,Schweiz,CH,7.69461,47.212266
3373,Röthenbach Herzogenbuchsee,Bern,BE,Schweiz,CH,7.69461,47.212266
3374,Wangenried,Bern,BE,Schweiz,CH,7.656892,47.217465
3375,Inkwil,Bern,BE,Schweiz,CH,7.664476,47.199536
3376,Graben,Bern,BE,Schweiz,CH,7.680366,47.06265
3376,Berken,Bern,BE,Schweiz,CH,7.680366,47.06265
3377,Walliswil b. Wangen,Bern,BE,Schweiz,CH,7.683358,47.223522
3380,Walliswil b. Niederbipp,Bern,BE,Schweiz,CH,7.6501966691409,47.2311063913255
3380,Wangen an der Aare,Bern,BE,Schweiz,CH,7.6501966691409,47.2311063913255
3400,Burgdorf,Bern,BE,Schweiz,CH,7.61910399714059,47.0536635297783
3412,Heimiswil,Bern,BE,Schweiz,CH,7.662945,47.062672
3413,Kaltacker,Bern,BE,Schweiz,CH,7.667294,47.079864
3414,Oberburg,Bern,BE,Schweiz,CH,7.60657064816169,47.0230543157421
3415,Schafhausen im Emmental,Bern,BE,Schweiz,CH,7.666272928,47.017
3415,Rüegsauschachen,Bern,BE,Schweiz,CH,7.666272928,47.017
3415,Hasle b. Burgdorf,Bern,BE,Schweiz,CH,7.666272928,47.017
3416,Affoltern im Emmental,Bern,BE,Schweiz,CH,7.733824,47.066512
3417,Rüegsau,Bern,BE,Schweiz,CH,7.687681,47.034182
3418,Rüegsbach,Bern,BE,Schweiz,CH,7.68994,47.034635
3419,Biembach im Emmental,Bern,BE,Schweiz,CH,7.628309,47.002252
3421,Rüti b. Lyssach,Bern,BE,Schweiz,CH,7.57866724013375,47.0667087716393
3421,Lyssach,Bern,BE,Schweiz,CH,7.57866724013375,47.0667087716393
3422,Rüdtligen,Bern,BE,Schweiz,CH,7.569064,47.081428
3422,Alchenflüh,Bern,BE,Schweiz,CH,7.569064,47.081428
3422,Kirchberg BE,Bern,BE,Schweiz,CH,7.569064,47.081428
3423,Ersigen,Bern,BE,Schweiz,CH,7.60423605697904,47.0975815462972
3424,Niederösch,Bern,BE,Schweiz,CH,7.602671,47.10675
3424,Oberösch,Bern,BE,Schweiz,CH,7.602671,47.10675
3425,Willadingen,Bern,BE,Schweiz,CH,7.60273390119814,47.1359560359347
3425,Koppigen,Bern,BE,Schweiz,CH,7.60273390119814,47.1359560359347
3426,Aefligen,Bern,BE,Schweiz,CH,7.54949111776456,47.0966219571136
3427,Utzenstorf,Bern,BE,Schweiz,CH,7.56350397408691,47.1239251797011
3428,Wiler b. Utzenstorf,Bern,BE,Schweiz,CH,7.55781,47.151101
3429,Hellsau,Bern,BE,Schweiz,CH,7.646911,47.142335
3429,Höchstetten,Bern,BE,Schweiz,CH,7.646911,47.142335
3432,Lützelflüh-Goldbach,Bern,BE,Schweiz,CH,7.684925,47.006385
3433,Schwanden im Emmental,Bern,BE,Schweiz,CH,7.705494,46.984482
3434,Obergoldbach,Bern,BE,Schweiz,CH,7.677932,46.953158
3435,Ramsei,Bern,BE,Schweiz,CH,7.703024,46.997917
3436,Zollbrück,Bern,BE,Schweiz,CH,7.751764693,46.966595
3437,Rüderswil,Bern,BE,Schweiz,CH,7.724298,46.981046
3438,Lauperswil,Bern,BE,Schweiz,CH,7.743791,46.958077
3439,Ranflüh,Bern,BE,Schweiz,CH,7.757408074,46.979843
3452,Grünenmatt,Bern,BE,Schweiz,CH,7.726404,47.007871
3453,Heimisbach,Bern,BE,Schweiz,CH,7.760311,47.011755
3454,Sumiswald,Bern,BE,Schweiz,CH,7.81466169371667,47.0318622368232
3455,Grünen,Bern,BE,Schweiz,CH,7.736893,47.025077
3456,Trachselwald,Bern,BE,Schweiz,CH,7.77232,47.010529
3457,Wasen im Emmental,Bern,BE,Schweiz,CH,7.797653,47.043568
3462,Weier im Emmental,Bern,BE,Schweiz,CH,7.748366,47.061417
3463,Häusernmoos im Emmental,Bern,BE,Schweiz,CH,7.749378,47.079517
3464,Schmidigen-Mühleweg,Bern,BE,Schweiz,CH,7.7474,47.09347
3465,Dürrenroth,Bern,BE,Schweiz,CH,7.780304,47.083003
3472,Rumendingen,Bern,BE,Schweiz,CH,7.69190013428269,47.1039251881849
3472,Wynigen,Bern,BE,Schweiz,CH,7.69190013428269,47.1039251881849
3473,Alchenstorf,Bern,BE,Schweiz,CH,7.63666,47.122544
3474,Rüedisbach,Bern,BE,Schweiz,CH,7.702974,47.119553
3475,Riedtwil,Bern,BE,Schweiz,CH,7.61395,46.96345
3475,Hermiswil,Bern,BE,Schweiz,CH,7.61395,46.96345
3476,Oschwand,Bern,BE,Schweiz,CH,7.71283,47.140757
3503,Gysenstein,Bern,BE,Schweiz,CH,7.59149,46.89028
3504,Niederhünigen,Bern,BE,Schweiz,CH,7.642855,46.871194
3504,Oberhünigen,Bern,BE,Schweiz,CH,7.642855,46.871194
3506,Grosshöchstetten,Bern,BE,Schweiz,CH,7.6324536680341,46.9055091636277
3507,Biglen,Bern,BE,Schweiz,CH,7.62666476851911,46.9278181081509
3508,Arni BE,Bern,BE,Schweiz,CH,7.644221,46.93135
3510,Freimettigen,Bern,BE,Schweiz,CH,7.60813890908904,46.886576638755
3510,Häutligen,Bern,BE,Schweiz,CH,7.60813890908904,46.886576638755
3510,Konolfingen,Bern,BE,Schweiz,CH,7.60813890908904,46.886576638755
3512,Walkringen,Bern,BE,Schweiz,CH,7.62735787484095,46.9606855631116
3513,Bigenthal,Bern,BE,Schweiz,CH,7.613296977,46.947587
3531,Oberthal,Bern,BE,Schweiz,CH,7.6768,46.91742
3532,Mirchel,Bern,BE,Schweiz,CH,7.66756067848679,46.8956574675921
3532,Zäziwil,Bern,BE,Schweiz,CH,7.66756067848679,46.8956574675921
3533,Bowil,Bern,BE,Schweiz,CH,7.6928,46.890039
3534,Signau,Bern,BE,Schweiz,CH,7.73880974913266,46.9154804862807
3535,Schüpbach,Bern,BE,Schweiz,CH,7.73218541,46.939127
3536,Aeschau,Bern,BE,Schweiz,CH,7.770171926,46.897257
3537,Eggiwil,Bern,BE,Schweiz,CH,7.80918342925897,46.8653680282371
3538,Röthenbach im Emmental,Bern,BE,Schweiz,CH,7.756023,46.842302
3543,Emmenmatt,Bern,BE,Schweiz,CH,7.750770432,46.949955
3550,Langnau im Emmental,Bern,BE,Schweiz,CH,7.809589,46.953716
3551,Oberfrittenbach,Bern,BE,Schweiz,CH,7.778628,46.951652
3552,Bärau,Bern,BE,Schweiz,CH,7.825268565,46.932244
3553,Gohl,Bern,BE,Schweiz,CH,7.806979,46.954928
3555,Trubschachen,Bern,BE,Schweiz,CH,7.83688755944087,46.9084349495113
3556,Trub,Bern,BE,Schweiz,CH,7.891328,46.949796
3557,Fankhaus (Trub),Bern,BE,Schweiz,CH,7.908681,46.967703
3600,Thun,Bern,BE,Schweiz,CH,7.62217117801834,46.7465774842769
3603,Thun,Bern,BE,Schweiz,CH,7.597535,46.761905
3604,Thun,Bern,BE,Schweiz,CH,7.62217117801834,46.7465774842769
3608,Thun,Bern,BE,Schweiz,CH,7.62217117801834,46.7465774842769
3612,Steffisburg,Bern,BE,Schweiz,CH,7.63270088715465,46.7814445034791
3613,Steffisburg,Bern,BE,Schweiz,CH,7.63270088715465,46.7814445034791
3614,Unterlangenegg,Bern,BE,Schweiz,CH,7.70124802937253,46.7992624628021
3615,Heimenschwand,Bern,BE,Schweiz,CH,7.703335451,46.816281
3616,Schwarzenegg,Bern,BE,Schweiz,CH,7.734264,46.799803
3617,Fahrni b. Thun,Bern,BE,Schweiz,CH,7.654146,46.798136
3618,Süderen,Bern,BE,Schweiz,CH,7.729619,46.815574
3619,Eriz,Bern,BE,Schweiz,CH,7.798843,46.78758
3619,Innereriz,Bern,BE,Schweiz,CH,7.798843,46.78758
3622,Homberg b. Thun,Bern,BE,Schweiz,CH,7.682735,46.775266
3623,Teuffenthal b. Thun,Bern,BE,Schweiz,CH,7.776072,46.774834
3623,Horrenbach,Bern,BE,Schweiz,CH,7.776072,46.774834
3623,Buchen BE,Bern,BE,Schweiz,CH,7.776072,46.774834
3624,Schwendibach,Bern,BE,Schweiz,CH,7.658443,46.769152
3624,Goldiwil (Thun),Bern,BE,Schweiz,CH,7.658443,46.769152
3625,Heiligenschwendi,Bern,BE,Schweiz,CH,7.68228861287648,46.7520062553137
3626,Hünibach,Bern,BE,Schweiz,CH,7.656426339,46.754527
3627,Heimberg,Bern,BE,Schweiz,CH,7.60350922635659,46.7931664331018
3628,Kienersrüti,Bern,BE,Schweiz,CH,7.572413,46.793616
3628,Uttigen,Bern,BE,Schweiz,CH,7.572413,46.793616
3629,Oppligen,Bern,BE,Schweiz,CH,7.57995845029807,46.812610086798
3629,Jaberg,Bern,BE,Schweiz,CH,7.57995845029807,46.812610086798
3629,Kiesen,Bern,BE,Schweiz,CH,7.57995845029807,46.812610086798
3631,Höfen b. Thun,Bern,BE,Schweiz,CH,7.564137,46.717808
3632,Niederstocken,Bern,BE,Schweiz,CH,7.569427,46.69826
3632,Oberstocken,Bern,BE,Schweiz,CH,7.569427,46.69826
3633,Amsoldingen,Bern,BE,Schweiz,CH,7.583751,46.725023
3634,Thierachern,Bern,BE,Schweiz,CH,7.57217957900784,46.7511176444293
3635,Uebeschi,Bern,BE,Schweiz,CH,7.545558,46.736994
3636,Längenbühl,Bern,BE,Schweiz,CH,7.5225775,46.767478
3636,Forst b. Längenbühl,Bern,BE,Schweiz,CH,7.5225775,46.767478
3638,Pohlern,Bern,BE,Schweiz,CH,7.49547578602698,46.7281351959738
3638,Blumenstein,Bern,BE,Schweiz,CH,7.49547578602698,46.7281351959738
3645,Gwatt (Thun),Bern,BE,Schweiz,CH,7.609926,46.70912
3645,Zwieselberg,Bern,BE,Schweiz,CH,7.609926,46.70912
3646,Einigen,Bern,BE,Schweiz,CH,7.630969297,46.718206
3647,Reutigen,Bern,BE,Schweiz,CH,7.605791,46.692768
3652,Hilterfingen,Bern,BE,Schweiz,CH,7.657883,46.740348
3653,Oberhofen am Thunersee,Bern,BE,Schweiz,CH,7.65483,46.736166
3654,Gunten,Bern,BE,Schweiz,CH,7.699379464,46.719012
3655,Sigriswil,Bern,BE,Schweiz,CH,7.74774937386512,46.7352870478117
3656,Tschingel ob Gunten,Bern,BE,Schweiz,CH,7.710341,46.723893
3656,Aeschlen ob Gunten,Bern,BE,Schweiz,CH,7.710341,46.723893
3656,Ringoldswil,Bern,BE,Schweiz,CH,7.710341,46.723893
3657,Schwanden (Sigriswil),Bern,BE,Schweiz,CH,7.713527,46.735805
3658,Merligen,Bern,BE,Schweiz,CH,7.730389519,46.700977
3661,Uetendorf,Bern,BE,Schweiz,CH,7.57456969363188,46.7749797696645
3662,Seftigen,Bern,BE,Schweiz,CH,7.5391683829241,46.7903626097654
3663,Gurzelen,Bern,BE,Schweiz,CH,7.534421,46.772385
3664,Burgistein,Bern,BE,Schweiz,CH,7.50323250996509,46.7920707158989
3665,Wattenwil,Bern,BE,Schweiz,CH,7.49272129010565,46.7593238076031
3671,Herbligen,Bern,BE,Schweiz,CH,7.616377,46.815044
3671,Brenzikofen,Bern,BE,Schweiz,CH,7.616377,46.815044
3672,Aeschlen b. Oberdiessbach,Bern,BE,Schweiz,CH,7.62746824480928,46.8426041024954
3672,Oberdiessbach,Bern,BE,Schweiz,CH,7.62746824480928,46.8426041024954
3673,Linden,Bern,BE,Schweiz,CH,7.68681675311348,46.8484276950271
3674,Bleiken b. Oberdiessbach,Bern,BE,Schweiz,CH,7.638606,46.815761
3700,Spiez,Bern,BE,Schweiz,CH,7.67061907591979,46.6865701316749
3702,Hondrich,Bern,BE,Schweiz,CH,7.654806585,46.662829
3703,Aeschiried,Bern,BE,Schweiz,CH,7.747447,46.623498
3703,Aeschi b. Spiez,Bern,BE,Schweiz,CH,7.747447,46.623498
3704,Krattigen,Bern,BE,Schweiz,CH,7.736121,46.651155
3705,Faulensee,Bern,BE,Schweiz,CH,7.724485715,46.662033
3706,Leissigen,Bern,BE,Schweiz,CH,7.77950009593175,46.6419932982363
3707,Därligen,Bern,BE,Schweiz,CH,7.812438,46.654712
3711,Emdthal,Bern,BE,Schweiz,CH,7.686458,46.652877
3711,Mülenen,Bern,BE,Schweiz,CH,7.686458,46.652877
3713,Reichenbach im Kandertal,Bern,BE,Schweiz,CH,7.736887,46.574101
3714,Wengi b. Frutigen,Bern,BE,Schweiz,CH,7.6167908678663,46.5584439273178
3714,Frutigen,Bern,BE,Schweiz,CH,7.6167908678663,46.5584439273178
3715,Adelboden,Bern,BE,Schweiz,CH,7.55513884572793,46.4736861025276
3716,Kandergrund,Bern,BE,Schweiz,CH,7.666921,46.537634
3717,Blausee-Mitholz,Bern,BE,Schweiz,CH,7.668789,46.533405
3718,Kandersteg,Bern,BE,Schweiz,CH,7.70831575160051,46.4692337512792
3722,Scharnachtal,Bern,BE,Schweiz,CH,7.698187,46.617169
3723,Kiental,Bern,BE,Schweiz,CH,7.760876726,46.563591
3724,Ried (Frutigen),Bern,BE,Schweiz,CH,7.624804,46.576555
3725,Achseten,Bern,BE,Schweiz,CH,7.597219,46.527804
3752,Wimmis,Bern,BE,Schweiz,CH,7.64166116863444,46.6615007766186
3753,Oey,Bern,BE,Schweiz,CH,7.583837001,46.668868
3754,Diemtigen,Bern,BE,Schweiz,CH,7.536272,46.606397
3755,Horboden,Bern,BE,Schweiz,CH,7.560812,46.632046
3756,Zwischenflüh,Bern,BE,Schweiz,CH,7.51577,46.607053
3757,Schwenden im Diemtigtal,Bern,BE,Schweiz,CH,7.482144674,46.563416
3758,Latterbach,Bern,BE,Schweiz,CH,7.57892,46.664195
3762,Erlenbach im Simmental,Bern,BE,Schweiz,CH,7.539807,46.662212
3763,Därstetten,Bern,BE,Schweiz,CH,7.491207,46.637448
3764,Weissenburg,Bern,BE,Schweiz,CH,7.475989122,46.638708
3765,Oberwil im Simmental,Bern,BE,Schweiz,CH,7.431625,46.655754
3766,Boltigen,Bern,BE,Schweiz,CH,7.35735597481461,46.6046027821741
3770,Zweisimmen,Bern,BE,Schweiz,CH,7.37984844036469,46.549329753145
3771,Blankenburg,Bern,BE,Schweiz,CH,7.388315788,46.51939
3772,St. Stephan,Bern,BE,Schweiz,CH,7.425975,46.503191
3773,Matten (St. Stephan),Bern,BE,Schweiz,CH,7.422602,46.497103
3775,Lenk im Simmental,Bern,BE,Schweiz,CH,7.449519,46.428896
