pincode,city,canton,canton_code,country,country_code,longitude,latitude
01945,Hermsdorf,Brandenburg,BB,Deutschland,DE,13.8937,51.4055
01945,Schwarzbach,Brandenburg,BB,Deutschland,DE,13.9333,51.45
01945,Ruhland,Brandenburg,BB,Deutschland,DE,13.8664,51.4576
01945,Hohenbocka,Brandenburg,BB,Deutschland,DE,14.0098,51.431
01945,Grünewald,Brandenburg,BB,Deutschland,DE,14,51.4
01945,Kroppen,Brandenburg,BB,Deutschland,DE,13.8,51.3833
01945,Lindenau,Brandenburg,BB,Deutschland,DE,13.7333,51.4
01945,Tettau,Brandenburg,BB,Deutschland,DE,13.7333,51.4333
01945,Guteborn,Brandenburg,BB,Deutschland,DE,13.9333,51.4167
01968,Schipkau,Brandenburg,BB,Deutschland,DE,13.9121,51.5456
01968,Schipkau Hörlitz,Brandenburg,BB,Deutschland,DE,13.9508,51.5299
01968,Senftenberg,Brandenburg,BB,Deutschland,DE,14.0016,51.5252
01979,Lauchhammer,Brandenburg,BB,Deutschland,DE,13.7662,51.4881
01983,Neu-Seeland,Brandenburg,BB,Deutschland,DE,14.1309,51.6214
01983,Großräschen,Brandenburg,BB,Deutschland,DE,14.0109,51.5876
01987,Schwarzheide,Brandenburg,BB,Deutschland,DE,13.8556,51.4767
01990,Frauendorf,Brandenburg,BB,Deutschland,DE,13.7696,51.4148
01990,Ortrand,Brandenburg,BB,Deutschland,DE,13.7598,51.375
01990,Großkmehlen,Brandenburg,BB,Deutschland,DE,13.725,51.379
01993,Schipkau,Brandenburg,BB,Deutschland,DE,13.9121,51.5456
01993,Schipkau Schipkau,Brandenburg,BB,Deutschland,DE,13.8981,51.5101
01994,Schipkau Annahütte,Brandenburg,BB,Deutschland,DE,13.8692,51.5641
01994,Schipkau,Brandenburg,BB,Deutschland,DE,13.9121,51.5456
01994,Schipkau Drochow,Brandenburg,BB,Deutschland,DE,13.9237,51.5693
01994,Schipkau Annahütte,Brandenburg,BB,Deutschland,DE,13.8891,51.5558
01994,Schipkau Annahütte,Brandenburg,BB,Deutschland,DE,13.8955,51.5632
01994,Schipkau Annahütte,Brandenburg,BB,Deutschland,DE,13.8742,51.5623
01994,Schipkau Meuro,Brandenburg,BB,Deutschland,DE,13.9244,51.5504
01994,Schipkau Annahütte,Brandenburg,BB,Deutschland,DE,13.882,51.5614
01996,Hosena,Brandenburg,BB,Deutschland,DE,14.0251,51.4547
01998,Schipkau Meuro,Brandenburg,BB,Deutschland,DE,13.9244,51.5504
01998,Schipkau,Brandenburg,BB,Deutschland,DE,13.9121,51.5456
01998,Schipkau Klettwitz,Brandenburg,BB,Deutschland,DE,13.8994,51.5422
03042,Cottbus,Brandenburg,BB,Deutschland,DE,14.3544,51.7612
03044,Cottbus,Brandenburg,BB,Deutschland,DE,14.3374,51.7754
03046,Cottbus,Brandenburg,BB,Deutschland,DE,14.3197,51.756
03048,Cottbus,Brandenburg,BB,Deutschland,DE,14.3198,51.7403
03050,Cottbus,Brandenburg,BB,Deutschland,DE,14.3347,51.7324
03051,Cottbus,Brandenburg,BB,Deutschland,DE,14.3333,51.7667
03052,Cottbus,Brandenburg,BB,Deutschland,DE,14.3333,51.7667
03053,Cottbus,Brandenburg,BB,Deutschland,DE,14.3333,51.7667
03054,Cottbus,Brandenburg,BB,Deutschland,DE,14.3333,51.7667
03055,Cottbus,Brandenburg,BB,Deutschland,DE,14.3333,51.7667
03058,Groß Oßnig,Brandenburg,BB,Deutschland,DE,14.3592,51.6783
03058,Roggosen,Brandenburg,BB,Deutschland,DE,14.4614,51.7043
03058,Sergen,Brandenburg,BB,Deutschland,DE,14.5025,51.7023
03058,Haasow,Brandenburg,BB,Deutschland,DE,14.4209,51.7426
03058,Klein Döbbern,Brandenburg,BB,Deutschland,DE,14.345,51.6682
03058,Koppatz,Brandenburg,BB,Deutschland,DE,14.4266,51.6962
03058,Frauendorf,Brandenburg,BB,Deutschland,DE,14.3878,51.7007
03058,Kiekebusch,Brandenburg,BB,Deutschland,DE,14.3631,51.7235
03058,Gablenz,Brandenburg,BB,Deutschland,DE,14.5094,51.6865
03058,Laubsdorf,Brandenburg,BB,Deutschland,DE,14.442,51.6744
03058,Kathlow,Brandenburg,BB,Deutschland,DE,14.4839,51.7252
03058,Groß Döbbern,Brandenburg,BB,Deutschland,DE,14.3298,51.6515
03058,Neuhausen,Brandenburg,BB,Deutschland,DE,14.4163,51.6788
03058,Gallinchen,Brandenburg,BB,Deutschland,DE,14.3539,51.711
03058,Komptendorf,Brandenburg,BB,Deutschland,DE,14.4727,51.6846
03058,Groß Gaglow,Brandenburg,BB,Deutschland,DE,14.3248,51.7139
03096,Burg (Spreewald),Brandenburg,BB,Deutschland,DE,14.15,51.8333
03096,Guhrow,Brandenburg,BB,Deutschland,DE,14.2294,51.812
03096,Werben,Brandenburg,BB,Deutschland,DE,14.1833,51.8167
03096,Schmogrow-Fehrow,Brandenburg,BB,Deutschland,DE,14.2333,51.85
03096,Briesen,Brandenburg,BB,Deutschland,DE,14.2442,51.8155
03096,Dissen-Striesow,Brandenburg,BB,Deutschland,DE,14.2833,51.825
03099,Kolkwitz,Brandenburg,BB,Deutschland,DE,14.25,51.75
03103,Neupetershain,Brandenburg,BB,Deutschland,DE,14.1651,51.608
03103,Neu-Seeland,Brandenburg,BB,Deutschland,DE,14.1309,51.6214
03116,Drebkau,Brandenburg,BB,Deutschland,DE,14.2232,51.6541
03119,Welzow,Brandenburg,BB,Deutschland,DE,14.1708,51.5838
03130,Bagenz,Brandenburg,BB,Deutschland,DE,14.4332,51.6448
03130,Proschim,Brandenburg,BB,Deutschland,DE,14.1884,51.5514
03130,Haidemühl,Brandenburg,BB,Deutschland,DE,14.2219,51.5518
03130,Spremberg,Brandenburg,BB,Deutschland,DE,14.3739,51.5696
03130,Reuthen,Brandenburg,BB,Deutschland,DE,14.5266,51.5906
03130,Hornow-Wadelsdorf,Brandenburg,BB,Deutschland,DE,14.4917,51.625
03130,Türkendorf,Brandenburg,BB,Deutschland,DE,14.4581,51.591
03130,Tschernitz,Brandenburg,BB,Deutschland,DE,14.6167,51.5833
03130,Felixsee,Brandenburg,BB,Deutschland,DE,14.5208,51.6083
03130,Graustein,Brandenburg,BB,Deutschland,DE,14.4732,51.5729
03130,Wolfshain,Brandenburg,BB,Deutschland,DE,14.589,51.5799
03130,Jämlitz-Klein Düben,Brandenburg,BB,Deutschland,DE,14.6417,51.5667
03130,Groß Luja,Brandenburg,BB,Deutschland,DE,14.4467,51.5978
03130,Drieschnitz-Kahsel,Brandenburg,BB,Deutschland,DE,14.475,51.6667
03130,Lieskau,Brandenburg,BB,Deutschland,DE,14.5271,51.5683
03139,Terpe,Brandenburg,BB,Deutschland,DE,14.3667,51.5667
03149,Forst (Lausitz),Brandenburg,BB,Deutschland,DE,14.598,51.7302
03149,Groß Schacksdorf-Simmersdorf,Brandenburg,BB,Deutschland,DE,14.625,51.7
03149,Wiesengrund,Brandenburg,BB,Deutschland,DE,14.5533,51.6967
03159,Döbern,Brandenburg,BB,Deutschland,DE,14.5981,51.6159
03159,Wiesengrund,Brandenburg,BB,Deutschland,DE,14.5533,51.6967
03159,Neiße-Malxetal,Brandenburg,BB,Deutschland,DE,14.63,51.6433
03172,Guben,Brandenburg,BB,Deutschland,DE,14.7145,51.9499
03172,Pinnow-Heideland,Brandenburg,BB,Deutschland,DE,14.5333,51.9833
03172,Bärenklau,Brandenburg,BB,Deutschland,DE,14.5667,51.9383
03172,Grießen,Brandenburg,BB,Deutschland,DE,14.5924,51.8492
03172,Gastrose-Kerkwitz,Brandenburg,BB,Deutschland,DE,14.65,51.9
03172,Atterwasch,Brandenburg,BB,Deutschland,DE,14.6255,51.9342
03172,Lutzketal,Brandenburg,BB,Deutschland,DE,14.6238,51.9833
03172,Grabko,Brandenburg,BB,Deutschland,DE,14.5756,51.9099
03185,Tauer,Brandenburg,BB,Deutschland,DE,14.45,51.9
03185,Turnow-Preilack,Brandenburg,BB,Deutschland,DE,14.4083,51.875
03185,Heinersbrück,Brandenburg,BB,Deutschland,DE,14.5074,51.8199
03185,Teichland,Brandenburg,BB,Deutschland,DE,14.4444,51.8056
03185,Grötsch,Brandenburg,BB,Deutschland,DE,14.5096,51.7932
03185,Drehnow,Brandenburg,BB,Deutschland,DE,14.3667,51.8667
03185,Peitz,Brandenburg,BB,Deutschland,DE,14.4114,51.8584
03185,Drachhausen,Brandenburg,BB,Deutschland,DE,14.3164,51.8903
03197,Jänschwalde,Brandenburg,BB,Deutschland,DE,14.4981,51.8607
03197,Drewitz,Brandenburg,BB,Deutschland,DE,14.5103,51.8966
03202,Luckow-Petershagen,Brandenburg,BB,Deutschland,DE,14.2573,53.2435
03205,Bischdorf,Brandenburg,BB,Deutschland,DE,13.9698,51.7989
03205,Ogrosen,Brandenburg,BB,Deutschland,DE,14.0422,51.7127
03205,Missen,Brandenburg,BB,Deutschland,DE,14.0498,51.7274
03205,Groß-Mehßow,Brandenburg,BB,Deutschland,DE,13.8167,51.7333
03205,Saßleben,Brandenburg,BB,Deutschland,DE,13.9865,51.7591
03205,Luckaitztal,Brandenburg,BB,Deutschland,DE,14,51.6833
03205,Kemmen,Brandenburg,BB,Deutschland,DE,13.9118,51.7335
03205,Lipten,Brandenburg,BB,Deutschland,DE,13.9271,51.6463
03205,Lug,Brandenburg,BB,Deutschland,DE,13.9296,51.6303
03205,Mlode,Brandenburg,BB,Deutschland,DE,13.9558,51.7746
03205,Laasow,Brandenburg,BB,Deutschland,DE,14.0875,51.7134
03205,Bolschwitz,Brandenburg,BB,Deutschland,DE,14.0293,51.7485
03205,Bronkow,Brandenburg,BB,Deutschland,DE,13.9167,51.6667
03205,Calau,Brandenburg,BB,Deutschland,DE,13.9533,51.744
03205,Werchow,Brandenburg,BB,Deutschland,DE,13.9555,51.7255
03222,Kittlitz,Brandenburg,BB,Deutschland,DE,13.9161,51.8308
03222,Klein Radden,Brandenburg,BB,Deutschland,DE,13.8796,51.8695
03222,Ragow,Brandenburg,BB,Deutschland,DE,13.902,51.8875
03222,Hindenberg,Brandenburg,BB,Deutschland,DE,13.8464,51.8532
03222,Groß Beuchow,Brandenburg,BB,Deutschland,DE,13.9031,51.85
03222,Lübbenau/Spreewald,Brandenburg,BB,Deutschland,DE,13.9613,51.8626
03222,Boblitz,Brandenburg,BB,Deutschland,DE,13.9827,51.8406
03222,Groß-Klessow,Brandenburg,BB,Deutschland,DE,13.95,51.8333
03226,Koßwig,Brandenburg,BB,Deutschland,DE,14.0287,51.7769
03226,Vetschau,Brandenburg,BB,Deutschland,DE,14.0794,51.7864
03226,Leipe,Brandenburg,BB,Deutschland,DE,14.0441,51.8554
03226,Suschow,Brandenburg,BB,Deutschland,DE,14.0923,51.7994
03226,Raddusch,Brandenburg,BB,Deutschland,DE,14.0403,51.8181
03229,Altdöbern,Brandenburg,BB,Deutschland,DE,14.0333,51.65
03229,Luckaitztal,Brandenburg,BB,Deutschland,DE,14,51.6833
03238,Dollenchen,Brandenburg,BB,Deutschland,DE,13.8595,51.6082
03238,Schadewitz,Brandenburg,BB,Deutschland,DE,13.4821,51.5607
03238,Lichterfeld,Brandenburg,BB,Deutschland,DE,13.7781,51.5976
03238,Gorden,Brandenburg,BB,Deutschland,DE,13.6269,51.5332
03238,Fischwasser,Brandenburg,BB,Deutschland,DE,13.6121,51.596
03238,Sallgast,Brandenburg,BB,Deutschland,DE,13.8486,51.5887
03238,Oppelhain,Brandenburg,BB,Deutschland,DE,13.5944,51.5549
03238,Gröbitz,Brandenburg,BB,Deutschland,DE,13.7138,51.6582
03238,Ponnsdorf,Brandenburg,BB,Deutschland,DE,13.6833,51.6667
03238,Göllnitz,Brandenburg,BB,Deutschland,DE,13.8575,51.64
03238,Lindthal,Brandenburg,BB,Deutschland,DE,13.7804,51.6581
03238,Finsterwalde,Brandenburg,BB,Deutschland,DE,13.7066,51.6339
03238,Lugau,Brandenburg,BB,Deutschland,DE,13.5979,51.6109
03238,Lindena,Brandenburg,BB,Deutschland,DE,13.5434,51.5928
03238,Eichholz-Drößig,Brandenburg,BB,Deutschland,DE,13.6583,51.6083
03238,Lieskau,Brandenburg,BB,Deutschland,DE,13.8086,51.6173
03238,Massen,Brandenburg,BB,Deutschland,DE,13.733,51.6428
03238,Münchhausen,Brandenburg,BB,Deutschland,DE,13.6447,51.6673
03238,Staupitz,Brandenburg,BB,Deutschland,DE,13.6703,51.5337
03238,Schacksdorf,Brandenburg,BB,Deutschland,DE,13.7618,51.6151
03238,Gruhno,Brandenburg,BB,Deutschland,DE,13.5185,51.5678
03238,Rückersdorf,Brandenburg,BB,Deutschland,DE,13.5723,51.5695
03238,Betten,Brandenburg,BB,Deutschland,DE,13.7674,51.6273
03246,Crinitz,Brandenburg,BB,Deutschland,DE,13.7667,51.7333
03246,Gahro,Brandenburg,BB,Deutschland,DE,13.7246,51.738
03246,Babben,Brandenburg,BB,Deutschland,DE,13.7856,51.7126
03249,Sonnewalde,Brandenburg,BB,Deutschland,DE,13.6473,51.6922
03249,Pahlsdorf,Brandenburg,BB,Deutschland,DE,13.6486,51.7193
03249,Großkrausnik,Brandenburg,BB,Deutschland,DE,13.6271,51.7322
03249,Kleinkrausnik,Brandenburg,BB,Deutschland,DE,13.5932,51.7354
03249,Breitenau,Brandenburg,BB,Deutschland,DE,13.7241,51.6864
03249,Goßmar,Brandenburg,BB,Deutschland,DE,13.6829,51.6905
03249,Bahren,Brandenburg,BB,Deutschland,DE,13.7167,51.7
03249,Zeckerin,Brandenburg,BB,Deutschland,DE,13.6321,51.7112
03253,Tröbitz,Brandenburg,BB,Deutschland,DE,13.4333,51.6
03253,Friedersdorf,Brandenburg,BB,Deutschland,DE,13.5726,51.6985
03253,Buchhain,Brandenburg,BB,Deutschland,DE,13.3898,51.6453
03253,Dübrichen,Brandenburg,BB,Deutschland,DE,13.4724,51.6686
03253,Hennersdorf,Brandenburg,BB,Deutschland,DE,13.6069,51.6369
03253,Schönewalde,Brandenburg,BB,Deutschland,DE,13.6025,51.679
03253,Trebbus,Brandenburg,BB,Deutschland,DE,13.5211,51.6924
03253,Werenzhain,Brandenburg,BB,Deutschland,DE,13.5322,51.6546
03253,Doberlug-Kirchhain,Brandenburg,BB,Deutschland,DE,13.5623,51.6258
03253,Arenzhain,Brandenburg,BB,Deutschland,DE,13.5092,51.6735
03253,Frankena,Brandenburg,BB,Deutschland,DE,13.5932,51.658
03253,Nexdorf,Brandenburg,BB,Deutschland,DE,13.3715,51.6368
03253,Schilda,Brandenburg,BB,Deutschland,DE,13.3833,51.6
03253,Prießen,Brandenburg,BB,Deutschland,DE,13.4301,51.6613
03253,Schönborn,Brandenburg,BB,Deutschland,DE,13.4897,51.6002
03253,Brenitz,Brandenburg,BB,Deutschland,DE,13.6007,51.7023
04895,Falkenberg/Elster,Brandenburg,BB,Deutschland,DE,13.2364,51.5875
04910,Haida,Brandenburg,BB,Deutschland,DE,13.4679,51.4793
04910,Elsterwerda,Brandenburg,BB,Deutschland,DE,13.52,51.4604
04916,Werchau,Brandenburg,BB,Deutschland,DE,13.3194,51.7782
04916,Herzberg (Elster),Brandenburg,BB,Deutschland,DE,13.2333,51.6833
04916,Themesgrund,Brandenburg,BB,Deutschland,DE,13.25,51.7667
04916,Heideeck,Brandenburg,BB,Deutschland,DE,13.2,51.8333
04916,Wildberg,Brandenburg,BB,Deutschland,DE,13.3167,51.7833
04916,Stolzenhain,Brandenburg,BB,Deutschland,DE,13.1607,51.8441
04924,Bad Liebenwerda,Brandenburg,BB,Deutschland,DE,13.3946,51.5183
04924,Uebigau-Wahrenbrück,Brandenburg,BB,Deutschland,DE,13.3333,51.5167
04928,Schraden,Brandenburg,BB,Deutschland,DE,13.6949,51.4253
04928,Plessa,Brandenburg,BB,Deutschland,DE,13.6167,51.4667
04928,Kahla,Brandenburg,BB,Deutschland,DE,13.5663,51.4678
04928,Döllingen,Brandenburg,BB,Deutschland,DE,13.5883,51.4837
04931,Mühlberg (Elbe),Brandenburg,BB,Deutschland,DE,13.2167,51.4333
04932,Merzdorf,Brandenburg,BB,Deutschland,DE,13.5333,51.4
04932,Reichenhain,Brandenburg,BB,Deutschland,DE,13.4287,51.4598
04932,Wainsdorf,Brandenburg,BB,Deutschland,DE,13.5073,51.4094
04932,Saathain,Brandenburg,BB,Deutschland,DE,13.4638,51.4632
04932,Großthiemig,Brandenburg,BB,Deutschland,DE,13.6667,51.3833
04932,Prösen,Brandenburg,BB,Deutschland,DE,13.5501,51.4153
04932,Gröden,Brandenburg,BB,Deutschland,DE,13.5667,51.4
04932,Hirschfeld,Brandenburg,BB,Deutschland,DE,13.6167,51.3833
04934,Dreska,Brandenburg,BB,Deutschland,DE,13.538,51.4853
04934,Hohenleipisch,Brandenburg,BB,Deutschland,DE,13.55,51.5
04936,Wehrhain,Brandenburg,BB,Deutschland,DE,13.4186,51.7213
04936,Naundorf,Brandenburg,BB,Deutschland,DE,13.4401,51.7374
04936,Proßmarke,Brandenburg,BB,Deutschland,DE,13.4913,51.7408
04936,Stechau,Brandenburg,BB,Deutschland,DE,13.4701,51.6974
04936,Ölsig,Brandenburg,BB,Deutschland,DE,13.375,51.6833
04936,Malitschkendorf,Brandenburg,BB,Deutschland,DE,13.3296,51.6945
04936,Freileben,Brandenburg,BB,Deutschland,DE,13.4,51.7833
04936,Jagsal,Brandenburg,BB,Deutschland,DE,13.354,51.6866
04936,Körba,Brandenburg,BB,Deutschland,DE,13.3877,51.8047
04936,Hohenbucko,Brandenburg,BB,Deutschland,DE,13.4667,51.7667
04936,Schöna-Kolpien,Brandenburg,BB,Deutschland,DE,13.45,51.825
04936,Schlieben,Brandenburg,BB,Deutschland,DE,13.383,51.7238
04936,Kolochau,Brandenburg,BB,Deutschland,DE,13.3177,51.7268
04936,Lebusa,Brandenburg,BB,Deutschland,DE,13.4207,51.7957
04936,Frankenhain,Brandenburg,BB,Deutschland,DE,13.4154,51.7027
04936,Hillmersdorf,Brandenburg,BB,Deutschland,DE,13.4873,51.7091
04938,Uebigau-Wahrenbrück,Brandenburg,BB,Deutschland,DE,13.3333,51.5167
12529,Schönefeld,Brandenburg,BB,Deutschland,DE,13.5037,52.389
14461,Potsdam,Brandenburg,BB,Deutschland,DE,13.0667,52.4
14467,Potsdam,Brandenburg,BB,Deutschland,DE,13.0626,52.403
14469,Potsdam,Brandenburg,BB,Deutschland,DE,12.9899,52.4091
14471,Potsdam,Brandenburg,BB,Deutschland,DE,13.0102,52.3744
14473,Potsdam,Brandenburg,BB,Deutschland,DE,13.0645,52.3908
14476,Golm,Brandenburg,BB,Deutschland,DE,12.967,52.4062
14476,Satzkorn,Brandenburg,BB,Deutschland,DE,12.9899,52.4744
14476,Marquardt,Brandenburg,BB,Deutschland,DE,12.9663,52.459
14476,Fahrland,Brandenburg,BB,Deutschland,DE,13.0117,52.4689
14476,Uetz-Paaren,Brandenburg,BB,Deutschland,DE,12.9376,52.4726
14476,Neu Fahrland,Brandenburg,BB,Deutschland,DE,13.0492,52.4489
14476,Seeburg,Brandenburg,BB,Deutschland,DE,13.1198,52.5097
14476,Töplitz,Brandenburg,BB,Deutschland,DE,12.7944,52.4167
14476,Groß Glienicke,Brandenburg,BB,Deutschland,DE,13.1079,52.4675
14478,Potsdam,Brandenburg,BB,Deutschland,DE,13.0914,52.3725
14480,Potsdam,Brandenburg,BB,Deutschland,DE,13.1273,52.3689
14482,Potsdam,Brandenburg,BB,Deutschland,DE,13.0993,52.3871
14513,Teltow,Brandenburg,BB,Deutschland,DE,13.2601,52.4031
14532,Stahnsdorf,Brandenburg,BB,Deutschland,DE,13.2167,52.3833
14532,Nudow,Brandenburg,BB,Deutschland,DE,13.1647,52.3283
14532,Fahlhorst,Brandenburg,BB,Deutschland,DE,13.1626,52.3061
14532,Kleinmachnow,Brandenburg,BB,Deutschland,DE,13.2251,52.4079
14532,Philippsthal,Brandenburg,BB,Deutschland,DE,13.1413,52.3336
14542,Kloster Lehnin,Brandenburg,BB,Deutschland,DE,12.6625,52.3271
14542,Werder (Havel),Brandenburg,BB,Deutschland,DE,12.9188,52.3687
14542,Schwielowsee,Brandenburg,BB,Deutschland,DE,12.9722,52.3389
14547,Stücken,Brandenburg,BB,Deutschland,DE,13.0792,52.245
14547,Beelitz,Brandenburg,BB,Deutschland,DE,12.9714,52.2381
14548,Schwielowsee,Brandenburg,BB,Deutschland,DE,12.9722,52.3389
14550,Groß Kreutz,Brandenburg,BB,Deutschland,DE,12.7794,52.4028
14550,Krielow,Brandenburg,BB,Deutschland,DE,12.8034,52.4166
14550,Deetz,Brandenburg,BB,Deutschland,DE,12.7718,52.4466
14550,Derwitz,Brandenburg,BB,Deutschland,DE,12.8245,52.4029
14550,Schmergow,Brandenburg,BB,Deutschland,DE,12.8116,52.454
14550,Bochow,Brandenburg,BB,Deutschland,DE,12.7934,52.381
14552,Fresdorf,Brandenburg,BB,Deutschland,DE,13.0754,52.2703
14552,Saarmund,Brandenburg,BB,Deutschland,DE,13.1251,52.3162
14552,Michendorf,Brandenburg,BB,Deutschland,DE,13.03,52.3135
14552,Wildenbruch,Brandenburg,BB,Deutschland,DE,13.0617,52.283
14552,Tremsdorf,Brandenburg,BB,Deutschland,DE,13.1198,52.27
14554,Seddiner See,Brandenburg,BB,Deutschland,DE,13.0167,52.2722
14557,Langerwisch,Brandenburg,BB,Deutschland,DE,13.0667,52.3167
14557,Wilhelmshorst,Brandenburg,BB,Deutschland,DE,13.0622,52.3318
14558,Bergholz-Rehbrücke,Brandenburg,BB,Deutschland,DE,13.1053,52.3472
14612,Falkensee,Brandenburg,BB,Deutschland,DE,13.0927,52.5601
14621,Schönwalde,Brandenburg,BB,Deutschland,DE,13.1265,52.6192
14624,Dallgow-Döberitz,Brandenburg,BB,Deutschland,DE,13.0584,52.5427
14627,Elstal,Brandenburg,BB,Deutschland,DE,12.9879,52.5425
14641,Paaren im Glien,Brandenburg,BB,Deutschland,DE,12.9876,52.6538
14641,Falkenrehde,Brandenburg,BB,Deutschland,DE,12.9234,52.4963
14641,Berge,Brandenburg,BB,Deutschland,DE,12.7951,52.6201
14641,Lietzow,Brandenburg,BB,Deutschland,DE,12.8305,52.6153
14641,Klein Behnitz,Brandenburg,BB,Deutschland,DE,12.7083,52.567
14641,Wachow,Brandenburg,BB,Deutschland,DE,12.7574,52.5337
14641,Mühlenberge,Brandenburg,BB,Deutschland,DE,12.6111,52.6667
14641,Kienberg,Brandenburg,BB,Deutschland,DE,12.9058,52.663
14641,Nauen,Brandenburg,BB,Deutschland,DE,12.8737,52.607
14641,Perwenitz,Brandenburg,BB,Deutschland,DE,13.0124,52.6585
14641,Etzin,Brandenburg,BB,Deutschland,DE,12.8542,52.5177
14641,Pessin,Brandenburg,BB,Deutschland,DE,12.6668,52.6424
14641,Bredow,Brandenburg,BB,Deutschland,DE,12.9266,52.5887
14641,Wustermark,Brandenburg,BB,Deutschland,DE,12.95,52.55
14641,Ribbeck,Brandenburg,BB,Deutschland,DE,12.7514,52.6246
14641,Groß Behnitz,Brandenburg,BB,Deutschland,DE,12.7329,52.5796
14641,Brädikow,Brandenburg,BB,Deutschland,DE,12.65,52.6898
14641,Tremmen,Brandenburg,BB,Deutschland,DE,12.8181,52.5305
14641,Grünefeld,Brandenburg,BB,Deutschland,DE,12.9646,52.6763
14641,Paulinenaue,Brandenburg,BB,Deutschland,DE,12.7107,52.677
14641,Bergerdamm,Brandenburg,BB,Deutschland,DE,12.8039,52.6561
14641,Tietzow,Brandenburg,BB,Deutschland,DE,12.9337,52.7125
14641,Markee,Brandenburg,BB,Deutschland,DE,12.872,52.5791
14641,Selbelang,Brandenburg,BB,Deutschland,DE,12.7138,52.6328
14641,Pausin,Brandenburg,BB,Deutschland,DE,13.0423,52.6389
14641,Retzow,Brandenburg,BB,Deutschland,DE,12.6855,52.6248
14641,Wansdorf,Brandenburg,BB,Deutschland,DE,13.0869,52.6399
14641,Börnicke,Brandenburg,BB,Deutschland,DE,12.9355,52.686
14641,Zeestow,Brandenburg,BB,Deutschland,DE,12.9592,52.573
14656,Brieselang,Brandenburg,BB,Deutschland,DE,13,52.5833
14662,Warsow,Brandenburg,BB,Deutschland,DE,12.6433,52.7113
14662,Vietznitz,Brandenburg,BB,Deutschland,DE,12.6256,52.7284
14662,Mühlenberge,Brandenburg,BB,Deutschland,DE,12.6111,52.6667
14662,Friesack,Brandenburg,BB,Deutschland,DE,12.5797,52.7376
14669,Ketzin,Brandenburg,BB,Deutschland,DE,12.8453,52.4781
14669,Zachow,Brandenburg,BB,Deutschland,DE,12.7845,52.4837
14712,Rathenow,Brandenburg,BB,Deutschland,DE,12.337,52.6066
14715,Nennhausen,Brandenburg,BB,Deutschland,DE,12.5,52.6
14715,Märkisch Luch Barnewitz,Brandenburg,BB,Deutschland,DE,12.6167,52.5667
14715,Vieritz,Brandenburg,BB,Deutschland,DE,12.2564,52.5249
14715,Märkisch Luch Möthlow,Brandenburg,BB,Deutschland,DE,12.65,52.6
14715,Bützer,Brandenburg,BB,Deutschland,DE,12.2995,52.5364
14715,Jerchel,Brandenburg,BB,Deutschland,DE,12.3433,52.4876
14715,Bamme,Brandenburg,BB,Deutschland,DE,12.4336,52.583
14715,Stechow-Ferchesar,Brandenburg,BB,Deutschland,DE,12.45,52.6478
14715,Märkisch Luch,Brandenburg,BB,Deutschland,DE,12.6167,52.5875
14715,Zollchow,Brandenburg,BB,Deutschland,DE,12.21,52.5282
14715,Landin,Brandenburg,BB,Deutschland,DE,12.5353,52.6642
14715,Havelaue,Brandenburg,BB,Deutschland,DE,12.2567,52.7167
14715,Märkisch Luch Buschow,Brandenburg,BB,Deutschland,DE,12.6333,52.5833
14715,Seeblick,Brandenburg,BB,Deutschland,DE,12.3778,52.6722
14715,Milow,Brandenburg,BB,Deutschland,DE,12.3115,52.5195
14715,Kriele,Brandenburg,BB,Deutschland,DE,12.5557,52.6551
14715,Möthlitz,Brandenburg,BB,Deutschland,DE,12.3899,52.4755
14715,Nitzahn,Brandenburg,BB,Deutschland,DE,12.3608,52.4672
14715,Gräningen,Brandenburg,BB,Deutschland,DE,12.4722,52.5789
14715,Großwudicke,Brandenburg,BB,Deutschland,DE,12.2327,52.5929
14715,Liepe,Brandenburg,BB,Deutschland,DE,12.6014,52.6135
14715,Mützlitz,Brandenburg,BB,Deutschland,DE,12.5108,52.5585
14715,Kotzen,Brandenburg,BB,Deutschland,DE,12.5167,52.6333
14715,Märkisch Luch Garlitz,Brandenburg,BB,Deutschland,DE,12.5667,52.5667
14727,Premnitz,Brandenburg,BB,Deutschland,DE,12.3485,52.5318
14727,Döberitz,Brandenburg,BB,Deutschland,DE,12.3682,52.5222
14728,Havelaue,Brandenburg,BB,Deutschland,DE,12.2567,52.7167
14728,Rhinow,Brandenburg,BB,Deutschland,DE,12.3419,52.7509
14728,Kleßen-Görne,Brandenburg,BB,Deutschland,DE,12.5,52.7167
14728,Gollenberg,Brandenburg,BB,Deutschland,DE,12.4,52.745
14770,Brandenburg an der Havel,Brandenburg,BB,Deutschland,DE,12.5228,52.4189
14772,Brandenburg an der Havel,Brandenburg,BB,Deutschland,DE,12.5297,52.4358
14774,Brandenburg an der Havel,Brandenburg,BB,Deutschland,DE,12.4144,52.3864
14776,Brandenburg an der Havel,Brandenburg,BB,Deutschland,DE,12.568,52.4043
14778,Wust,Brandenburg,BB,Deutschland,DE,12.6106,52.4147
14778,Gollwitz,Brandenburg,BB,Deutschland,DE,12.6451,52.4195
14778,Päwesin,Brandenburg,BB,Deutschland,DE,12.7167,52.5167
14778,Schenkenberg,Brandenburg,BB,Deutschland,DE,12.7112,52.3904
14778,Trechwitz,Brandenburg,BB,Deutschland,DE,12.7192,52.3662
14778,Beetzsee,Brandenburg,BB,Deutschland,DE,12.5611,52.4833
14778,Götz,Brandenburg,BB,Deutschland,DE,12.7193,52.4197
14778,Roskow,Brandenburg,BB,Deutschland,DE,12.7189,52.4724
14778,Golzow,Brandenburg,BB,Deutschland,DE,12.6005,52.2762
14778,Havelsee,Brandenburg,BB,Deutschland,DE,12.4667,52.4929
14778,Wollin,Brandenburg,BB,Deutschland,DE,12.4667,52.2833
14778,Planetal,Brandenburg,BB,Deutschland,DE,12.6767,52.1167
14778,Wenzlow,Brandenburg,BB,Deutschland,DE,12.45,52.3
14778,Planebruch,Brandenburg,BB,Deutschland,DE,12.6875,52.2542
14778,Jeserig,Brandenburg,BB,Deutschland,DE,12.4511,52.0859
14778,Kloster Lehnin,Brandenburg,BB,Deutschland,DE,12.6625,52.3271
14778,Beetzseeheide,Brandenburg,BB,Deutschland,DE,12.6125,52.4917
14789,Bensdorf,Brandenburg,BB,Deutschland,DE,12.3333,52.4167
14789,Wusterwitz,Brandenburg,BB,Deutschland,DE,12.3849,52.3667
14789,Rosenau,Brandenburg,BB,Deutschland,DE,12.3583,52.3292
14793,Rottstock,Brandenburg,BB,Deutschland,DE,12.3523,52.1989
14793,Gräben,Brandenburg,BB,Deutschland,DE,12.4333,52.2333
14793,Buckautal,Brandenburg,BB,Deutschland,DE,12.3222,52.2333
14793,Ziesar,Brandenburg,BB,Deutschland,DE,12.3471,52.2405
14797,Kloster Lehnin,Brandenburg,BB,Deutschland,DE,12.6625,52.3271
14798,Havelsee,Brandenburg,BB,Deutschland,DE,12.4667,52.4929
14806,Schwanebeck,Brandenburg,BB,Deutschland,DE,12.6272,52.1765
14806,Hagelberg,Brandenburg,BB,Deutschland,DE,12.5196,52.1386
14806,Belzig,Brandenburg,BB,Deutschland,DE,12.6,52.1333
14806,Planetal,Brandenburg,BB,Deutschland,DE,12.6767,52.1167
14822,Borkwalde,Brandenburg,BB,Deutschland,DE,12.8333,52.25
14822,Mühlenfließ,Brandenburg,BB,Deutschland,DE,12.7917,52.1194
14822,Borkheide,Brandenburg,BB,Deutschland,DE,12.85,52.2167
14822,Brück,Brandenburg,BB,Deutschland,DE,12.7687,52.1977
14822,Planebruch,Brandenburg,BB,Deutschland,DE,12.6875,52.2542
14822,Linthe,Brandenburg,BB,Deutschland,DE,12.7851,52.1975
14823,Niemegk,Brandenburg,BB,Deutschland,DE,12.6185,52.0531
14823,Mühlenfließ,Brandenburg,BB,Deutschland,DE,12.7917,52.1194
14823,Rabenstein/Fläming,Brandenburg,BB,Deutschland,DE,12.6313,52.0333
14827,Wiesenburg,Brandenburg,BB,Deutschland,DE,12.4553,52.1146
14828,Görzke,Brandenburg,BB,Deutschland,DE,12.3751,52.1718
14913,Niedergörsdorf,Brandenburg,BB,Deutschland,DE,12.9854,51.9794
14913,Wahlsdorf,Brandenburg,BB,Deutschland,DE,13.3278,51.9562
14913,Ihlow,Brandenburg,BB,Deutschland,DE,13.3377,51.8672
14913,Herbersdorf,Brandenburg,BB,Deutschland,DE,13.295,51.8618
14913,Niebendorf-Heinsdorf,Brandenburg,BB,Deutschland,DE,13.3333,51.9333
14913,Hohenseefeld,Brandenburg,BB,Deutschland,DE,13.305,51.8895
14913,Nuthe-Urstromtal,Brandenburg,BB,Deutschland,DE,13.2152,52.1116
14913,Jüterbog,Brandenburg,BB,Deutschland,DE,13.0798,51.9961
14913,Niederer Fläming,Brandenburg,BB,Deutschland,DE,13.2092,51.9025
14929,Treuenbrietzen,Brandenburg,BB,Deutschland,DE,12.8726,52.0975
14943,Lüdersdorf,Brandenburg,BB,Deutschland,DE,13.2899,52.1858
14943,Lühsdorf,Brandenburg,BB,Deutschland,DE,12.9703,52.1564
14943,Luckenwalde,Brandenburg,BB,Deutschland,DE,13.1677,52.0903
14947,Nuthe-Urstromtal,Brandenburg,BB,Deutschland,DE,13.2152,52.1116
14959,Schönhagen,Brandenburg,BB,Deutschland,DE,13.1464,52.213
14959,Trebbin,Brandenburg,BB,Deutschland,DE,13.225,52.2168
14974,Ludwigsfelde,Brandenburg,BB,Deutschland,DE,13.254,52.3032
14974,Thyrow,Brandenburg,BB,Deutschland,DE,13.2396,52.2526
14979,Großbeeren,Brandenburg,BB,Deutschland,DE,13.3099,52.3586
15230,Frankfurt (Oder),Brandenburg,BB,Deutschland,DE,14.5539,52.3475
15232,Frankfurt (Oder),Brandenburg,BB,Deutschland,DE,14.5325,52.3241
15234,Frankfurt (Oder),Brandenburg,BB,Deutschland,DE,14.5244,52.3646
15236,Jacobsdorf Sieversdorf,Brandenburg,BB,Deutschland,DE,14.3667,52.3833
15236,Frankfurt (Oder),Brandenburg,BB,Deutschland,DE,14.55,52.35
15236,Treplin,Brandenburg,BB,Deutschland,DE,14.4,52.4
15236,Jacobsdorf Jacobsdorf,Brandenburg,BB,Deutschland,DE,14.4179,52.3345
15236,Jacobsdorf Pillgram,Brandenburg,BB,Deutschland,DE,14.4,52.3333
15236,Jacobsdorf Petersdorf bei Briesen,Brandenburg,BB,Deutschland,DE,14.35,52.3667
15236,Jacobsdorf,Brandenburg,BB,Deutschland,DE,14.35,52.3333
15295,Ziltendorf,Brandenburg,BB,Deutschland,DE,14.6241,52.2061
15295,Groß Lindow,Brandenburg,BB,Deutschland,DE,14.5333,52.2333
15295,Wiesenau,Brandenburg,BB,Deutschland,DE,14.5911,52.2307
15295,Ziltendorf Ernst-Thälmann-Siedlung,Brandenburg,BB,Deutschland,DE,14.6333,52.2333
15295,Ziltendorf Aurith,Brandenburg,BB,Deutschland,DE,14.6833,52.25
15295,Groß Lindow Schlaubehammer,Brandenburg,BB,Deutschland,DE,14.4833,52.25
15295,Brieskow-Finkenheerd,Brandenburg,BB,Deutschland,DE,14.5728,52.2539
15295,Groß Lindow Weißenspring,Brandenburg,BB,Deutschland,DE,14.5167,52.2333
15299,Mixdorf,Brandenburg,BB,Deutschland,DE,14.4,52.2
15299,Müllrose,Brandenburg,BB,Deutschland,DE,14.4179,52.2474
15299,Grunow-Dammendorf,Brandenburg,BB,Deutschland,DE,14.4083,52.15
15299,Dammendorf,Brandenburg,BB,Deutschland,DE,14.416,52.1408
15299,Grunow-Dammendorf Grunow,Brandenburg,BB,Deutschland,DE,14.4,52.15
15306,Vierlinden Marxdorf,Brandenburg,BB,Deutschland,DE,14.28,52.483
15306,Vierlinden Worin,Brandenburg,BB,Deutschland,DE,14.2749,52.5206
15306,Vierlinden Friedersdorf,Brandenburg,BB,Deutschland,DE,14.3987,52.5102
15306,Falkenhagen,Brandenburg,BB,Deutschland,DE,14.3167,52.4333
15306,Vierlinden,Brandenburg,BB,Deutschland,DE,14.3141,52.515
15306,Vierlinden Görlsdorf,Brandenburg,BB,Deutschland,DE,14.3107,52.5299
15306,Lindendorf Neu Mahlisch,Brandenburg,BB,Deutschland,DE,14.3898,52.4802
15306,Seelow,Brandenburg,BB,Deutschland,DE,14.3813,52.5339
15306,Lietzen,Brandenburg,BB,Deutschland,DE,14.3401,52.4699
15306,Gusow-Platkow Gusow,Brandenburg,BB,Deutschland,DE,14.3556,52.5719
15306,Werbig,Brandenburg,BB,Deutschland,DE,14.3848,52.5617
15306,Vierlinden Neuentempel,Brandenburg,BB,Deutschland,DE,14.3265,52.502
15306,Fichtenhöhe Alt Mahlisch,Brandenburg,BB,Deutschland,DE,14.4209,52.4641
15306,Vierlinden Diedersdorf,Brandenburg,BB,Deutschland,DE,14.3311,52.5121
15306,Fichtenhöhe,Brandenburg,BB,Deutschland,DE,14.4469,52.4556
15306,Lindendorf,Brandenburg,BB,Deutschland,DE,14.4285,52.4899
15306,Lindendorf Dolgelin,Brandenburg,BB,Deutschland,DE,14.4071,52.4955
15306,Lindendorf Libbenichen,Brandenburg,BB,Deutschland,DE,14.4367,52.4775
15306,Lindendorf Sachsendorf,Brandenburg,BB,Deutschland,DE,14.4804,52.5063
15306,Fichtenhöhe Niederjesar,Brandenburg,BB,Deutschland,DE,14.4324,52.4449
15306,Gusow-Platkow Platkow,Brandenburg,BB,Deutschland,DE,14.3244,52.5835
15306,Gusow-Platkow,Brandenburg,BB,Deutschland,DE,14.34,52.5777
15306,Vierlinden Alt Rosenthal,Brandenburg,BB,Deutschland,DE,14.277,52.5471
15320,Neutrebbin Alttrebbin,Brandenburg,BB,Deutschland,DE,14.2481,52.6908
15320,Neutrebbin,Brandenburg,BB,Deutschland,DE,14.228,52.6648
15320,Neuhardenberg,Brandenburg,BB,Deutschland,DE,14.2377,52.596
15320,Sietzing,Brandenburg,BB,Deutschland,DE,14.286,52.6594
15320,Neuhardenberg Altfriedland,Brandenburg,BB,Deutschland,DE,14.2135,52.6274
15320,Neutrebbin Altbarnim,Brandenburg,BB,Deutschland,DE,14.2808,52.6857
15320,Neuhardenberg Wulkow bei Trebnitz,Brandenburg,BB,Deutschland,DE,14.2351,52.5697
15320,Neutrebbin Neutrebbin,Brandenburg,BB,Deutschland,DE,14.2333,52.6667
15320,Neuhardenberg Quappendorf,Brandenburg,BB,Deutschland,DE,14.2669,52.6186
15320,Neuhardenberg Neuhardenberg,Brandenburg,BB,Deutschland,DE,14.2402,52.5955
15324,Letschin,Brandenburg,BB,Deutschland,DE,14.3601,52.6438
15324,Neubarnim,Brandenburg,BB,Deutschland,DE,14.3056,52.7025
15324,Kiehnwerder,Brandenburg,BB,Deutschland,DE,14.303,52.6316
15324,Gieshof-Zelliner Loose,Brandenburg,BB,Deutschland,DE,14.3174,52.7237
15324,Kienitz,Brandenburg,BB,Deutschland,DE,14.4389,52.6731
15324,Ortwig,Brandenburg,BB,Deutschland,DE,14.3562,52.7039
15324,Groß Neuendorf,Brandenburg,BB,Deutschland,DE,14.4081,52.7005
15326,Zeschdorf Döbberin,Brandenburg,BB,Deutschland,DE,14.3736,52.4414
15326,Podelzig,Brandenburg,BB,Deutschland,DE,14.5347,52.4717
15326,Lebus,Brandenburg,BB,Deutschland,DE,14.5323,52.4272
15326,Zeschdorf,Brandenburg,BB,Deutschland,DE,14.3875,52.4213
15326,Lebus Lebus,Brandenburg,BB,Deutschland,DE,14.533,52.4236
15326,Lebus Schönfließ,Brandenburg,BB,Deutschland,DE,14.4735,52.4212
15326,Zeschdorf Petershagen,Brandenburg,BB,Deutschland,DE,14.3425,52.3978
15326,Fichtenhöhe Carzig,Brandenburg,BB,Deutschland,DE,14.4875,52.4579
15326,Lebus Wulkow,Brandenburg,BB,Deutschland,DE,14.4715,52.4021
15326,Fichtenhöhe,Brandenburg,BB,Deutschland,DE,14.4469,52.4556
15326,Lebus Mallnow,Brandenburg,BB,Deutschland,DE,14.4926,52.456
15326,Zeschdorf Alt Zeschdorf,Brandenburg,BB,Deutschland,DE,14.4465,52.4248
15328,Alt Tucheband,Brandenburg,BB,Deutschland,DE,14.5123,52.5373
15328,Zechin Buschdorf,Brandenburg,BB,Deutschland,DE,14.4403,52.6023
15328,Zechin,Brandenburg,BB,Deutschland,DE,14.4525,52.6084
15328,Zechin Friedrichsaue,Brandenburg,BB,Deutschland,DE,14.4726,52.5982
15328,Küstriner Vorland,Brandenburg,BB,Deutschland,DE,14.5728,52.5624
15328,Zechin Zechin,Brandenburg,BB,Deutschland,DE,14.4579,52.6124
15328,Golzow,Brandenburg,BB,Deutschland,DE,14.493,52.574
15328,Küstriner Vorland Manschnow,Brandenburg,BB,Deutschland,DE,14.5564,52.5521
15328,Reitwein,Brandenburg,BB,Deutschland,DE,14.5817,52.5009
15328,Bleyen-Genschmar Bleyen,Brandenburg,BB,Deutschland,DE,14.6105,52.588
15328,Küstriner Vorland Küstrin-Kietz,Brandenburg,BB,Deutschland,DE,14.6105,52.5668
15328,Alt Tucheband Ratstock,Brandenburg,BB,Deutschland,DE,14.5412,52.5215
15328,Bleyen-Genschmar Genschmar,Brandenburg,BB,Deutschland,DE,14.5187,52.6155
15328,Alt Tucheband Alt Tucheband,Brandenburg,BB,Deutschland,DE,14.5134,52.5386
15328,Bleyen-Genschmar,Brandenburg,BB,Deutschland,DE,14.5646,52.6017
15328,Küstriner Vorland Gorgast,Brandenburg,BB,Deutschland,DE,14.5515,52.5682
15328,Alt Tucheband Hathenow,Brandenburg,BB,Deutschland,DE,14.5357,52.5041
15344,Strausberg,Brandenburg,BB,Deutschland,DE,13.8874,52.5786
15345,Werder,Brandenburg,BB,Deutschland,DE,13.9442,52.52
15345,Petershagen-Eggersdorf,Brandenburg,BB,Deutschland,DE,13.8,52.525
15345,Lichtenow,Brandenburg,BB,Deutschland,DE,13.9114,52.4797
15345,Rehfelde,Brandenburg,BB,Deutschland,DE,13.9088,52.5342
15345,Garzau-Garzin,Brandenburg,BB,Deutschland,DE,13.9667,52.5382
15345,Altlandsberg,Brandenburg,BB,Deutschland,DE,13.7281,52.565
15345,Rehfelde Werder,Brandenburg,BB,Deutschland,DE,13.9462,52.5205
15345,Reichenow-Möglin,Brandenburg,BB,Deutschland,DE,14.0937,52.6562
15345,Rehfelde Rehfelde,Brandenburg,BB,Deutschland,DE,13.9156,52.5368
15345,Reichenow-Möglin Möglin,Brandenburg,BB,Deutschland,DE,14.11,52.6653
15345,Prötzel,Brandenburg,BB,Deutschland,DE,13.9878,52.6372
15345,Prötzel Harnekop,Brandenburg,BB,Deutschland,DE,14.0137,52.6844
15345,Rehfelde Zinndorf,Brandenburg,BB,Deutschland,DE,13.9256,52.5027
15345,Prötzel Prötzel,Brandenburg,BB,Deutschland,DE,13.9895,52.6391
15345,Zinndorf,Brandenburg,BB,Deutschland,DE,13.9225,52.5015
15345,Reichenow-Möglin Reichenow,Brandenburg,BB,Deutschland,DE,14.0775,52.647
15345,Garzau-Garzin Garzin,Brandenburg,BB,Deutschland,DE,13.9822,52.5457
15345,Prötzel Prädikow,Brandenburg,BB,Deutschland,DE,14.0177,52.6159
15345,Oberbarnim Klosterdorf,Brandenburg,BB,Deutschland,DE,13.9569,52.5914
15345,Oberbarnim,Brandenburg,BB,Deutschland,DE,14.0355,52.5938
15345,Garzau-Garzin Garzau,Brandenburg,BB,Deutschland,DE,13.9511,52.5307
15345,Prötzel Sternebeck,Brandenburg,BB,Deutschland,DE,13.9937,52.6748
15366,Münchehofe,Brandenburg,BB,Deutschland,DE,14.1376,52.5562
15366,Dahlwitz-Hoppegarten,Brandenburg,BB,Deutschland,DE,13.6667,52.5167
15366,Hönow,Brandenburg,BB,Deutschland,DE,13.6376,52.5467
15366,Neuenhagen bei Berlin,Brandenburg,BB,Deutschland,DE,13.6833,52.5333
15370,Fredersdorf-Vogelsdorf,Brandenburg,BB,Deutschland,DE,13.7333,52.5
15370,Petershagen-Eggersdorf,Brandenburg,BB,Deutschland,DE,13.8,52.525
15372,Müncheberg,Brandenburg,BB,Deutschland,DE,14.1333,52.5
15374,Müncheberg,Brandenburg,BB,Deutschland,DE,14.1359,52.5114
15377,Buckow,Brandenburg,BB,Deutschland,DE,14.0743,52.5661
15377,Waldsieversdorf,Brandenburg,BB,Deutschland,DE,14.0702,52.5422
15377,Märkische Höhe Ringenwalde,Brandenburg,BB,Deutschland,DE,14.1459,52.6173
15377,Oberbarnim Grunow,Brandenburg,BB,Deutschland,DE,14.032,52.6028
15377,Oberbarnim,Brandenburg,BB,Deutschland,DE,14.0355,52.5938
15377,Oberbarnim Bollersdorf,Brandenburg,BB,Deutschland,DE,14.1038,52.59
15377,Ihlow,Brandenburg,BB,Deutschland,DE,14.0708,52.619
15377,Märkische Höhe,Brandenburg,BB,Deutschland,DE,14.1292,52.6199
15377,Oberbarnim Bollersdorf,Brandenburg,BB,Deutschland,DE,14.0528,52.5818
15377,Oberbarnim Grunow,Brandenburg,BB,Deutschland,DE,14.0379,52.606
15377,Märkische Höhe Reichenberg,Brandenburg,BB,Deutschland,DE,14.1165,52.6109
15377,Oberbarnim Bollersdorf,Brandenburg,BB,Deutschland,DE,14.0783,52.5859
15377,Märkische Höhe Batzlow,Brandenburg,BB,Deutschland,DE,14.125,52.6316
15377,Oberbarnim Grunow,Brandenburg,BB,Deutschland,DE,14.0261,52.5996
15378,Herzfelde,Brandenburg,BB,Deutschland,DE,13.8521,52.4816
15378,Hennickendorf,Brandenburg,BB,Deutschland,DE,13.8521,52.5077
15517,Fürstenwalde/Spree,Brandenburg,BB,Deutschland,DE,14.0583,52.3833
15517,Fürstenwalde/Spree Trebus,Brandenburg,BB,Deutschland,DE,14.05,52.4
15517,Fürstenwalde/Spree Fürstenwalde,Brandenburg,BB,Deutschland,DE,14.0467,52.3638
15518,Langewahl,Brandenburg,BB,Deutschland,DE,14.1,52.3333
15518,Steinhöfel Demnitz,Brandenburg,BB,Deutschland,DE,14.2,52.3833
15518,Steinhöfel Tempelberg,Brandenburg,BB,Deutschland,DE,14.1667,52.45
15518,Steinhöfel Jänickendorf,Brandenburg,BB,Deutschland,DE,14.0167,52.4333
15518,Falkenberg,Brandenburg,BB,Deutschland,DE,14.2353,52.3809
15518,Briesen (Mark),Brandenburg,BB,Deutschland,DE,14.3,52.325
15518,Steinhöfel Hasenfelde,Brandenburg,BB,Deutschland,DE,14.2167,52.4167
15518,Briesen (Mark) Briesen (Mark),Brandenburg,BB,Deutschland,DE,14.2833,52.3333
15518,Steinhöfel,Brandenburg,BB,Deutschland,DE,14.1667,52.4
15518,Madlitz-Wilmersdorf Alt Madlitz,Brandenburg,BB,Deutschland,DE,14.2833,52.3833
15518,Steinhöfel Schönfelde,Brandenburg,BB,Deutschland,DE,14.05,52.4667
15518,Madlitz-Wilmersdorf Falkenberg,Brandenburg,BB,Deutschland,DE,14.2389,52.3811
15518,Steinhöfel Gölsdorf,Brandenburg,BB,Deutschland,DE,14.1,52.45
15518,Briesen (Mark) Biegen,Brandenburg,BB,Deutschland,DE,14.3667,52.3167
15518,Steinhöfel Arensdorf,Brandenburg,BB,Deutschland,DE,14.25,52.4333
15518,Steinhöfel Neuendorf im Sande,Brandenburg,BB,Deutschland,DE,14.1,52.3833
15518,Steinhöfel Heinersdorf,Brandenburg,BB,Deutschland,DE,14.2167,52.45
15518,Madlitz-Wilmersdorf Wilmersdorf,Brandenburg,BB,Deutschland,DE,14.2667,52.4
15518,Steinhöfel Steinhöfel,Brandenburg,BB,Deutschland,DE,14.1667,52.4
15518,Madlitz-Wilmersdorf,Brandenburg,BB,Deutschland,DE,14.263,52.3881
15518,Steinhöfel Buchholz,Brandenburg,BB,Deutschland,DE,14.1167,52.4167
15518,Grünheide (Mark) Hangelsberg,Brandenburg,BB,Deutschland,DE,13.9333,52.3833
15518,Berkenbrück,Brandenburg,BB,Deutschland,DE,14.15,52.35
15518,Rauen,Brandenburg,BB,Deutschland,DE,14.028,52.3323
15518,Grünheide (Mark),Brandenburg,BB,Deutschland,DE,13.8889,52.4111
15518,Steinhöfel Beerfelde,Brandenburg,BB,Deutschland,DE,14.05,52.4333
15526,Reichenwalde Kolpin,Brandenburg,BB,Deutschland,DE,13.9833,52.2833
15526,Bad Saarow,Brandenburg,BB,Deutschland,DE,14.0667,52.2833
15526,Reichenwalde Reichenwalde,Brandenburg,BB,Deutschland,DE,14,52.2667
15526,Rietz-Neuendorf,Brandenburg,BB,Deutschland,DE,14.1619,52.2321
15526,Reichenwalde Dahmsdorf,Brandenburg,BB,Deutschland,DE,13.9833,52.2333
15526,Rietz-Neuendorf Alt Golm,Brandenburg,BB,Deutschland,DE,14.1167,52.3
15526,Reichenwalde,Brandenburg,BB,Deutschland,DE,14,52.2667
15526,Bad Saarow Neu Golm,Brandenburg,BB,Deutschland,DE,14.1,52.3
15526,Bad Saarow Bad Saarow,Brandenburg,BB,Deutschland,DE,14.0667,52.2833
15526,Bad Saarow Petersdorf,Brandenburg,BB,Deutschland,DE,14.0833,52.3167
15528,Spreenhagen Braunsdorf,Brandenburg,BB,Deutschland,DE,13.9667,52.3667
15528,Spreenhagen,Brandenburg,BB,Deutschland,DE,13.8766,52.3432
15528,Grünheide (Mark) Spreeau,Brandenburg,BB,Deutschland,DE,13.8333,52.3667
15528,Spreenhagen Markgrafpieske,Brandenburg,BB,Deutschland,DE,13.95,52.3333
15528,Spreenhagen Hartmannsdorf,Brandenburg,BB,Deutschland,DE,13.85,52.3667
15528,Grünheide (Mark),Brandenburg,BB,Deutschland,DE,13.8889,52.4111
15528,Spreenhagen Spreenhagen,Brandenburg,BB,Deutschland,DE,13.8991,52.324
15528,Grünheide (Mark) Mönchwinkel,Brandenburg,BB,Deutschland,DE,13.8833,52.3833
15537,Gosen Neu Zittau,Brandenburg,BB,Deutschland,DE,13.75,52.3667
15537,Grünheide (Mark) Kienbaum,Brandenburg,BB,Deutschland,DE,13.95,52.45
15537,Grünheide (Mark) Grünheide,Brandenburg,BB,Deutschland,DE,13.8167,52.4167
15537,Grünheide (Mark) Kagel,Brandenburg,BB,Deutschland,DE,13.9167,52.4667
15537,Gosen Gosen,Brandenburg,BB,Deutschland,DE,13.7167,52.4
15537,Grünheide (Mark),Brandenburg,BB,Deutschland,DE,13.8889,52.4111
15537,Erkner,Brandenburg,BB,Deutschland,DE,13.7544,52.42
15562,Rüdersdorf bei Berlin,Brandenburg,BB,Deutschland,DE,13.7736,52.4707
15566,Schöneiche bei Berlin,Brandenburg,BB,Deutschland,DE,13.7054,52.4598
15569,Woltersdorf,Brandenburg,BB,Deutschland,DE,13.756,52.446
15711,Königs Wusterhausen,Brandenburg,BB,Deutschland,DE,13.633,52.3014
15711,Schenkendorf,Brandenburg,BB,Deutschland,DE,13.5948,52.2779
15711,Zeesen,Brandenburg,BB,Deutschland,DE,13.6376,52.2788
15712,Kablow,Brandenburg,BB,Deutschland,DE,13.7179,52.2973
15712,Zernsdorf,Brandenburg,BB,Deutschland,DE,13.6969,52.3036
15712,Senzig,Brandenburg,BB,Deutschland,DE,13.6997,52.2891
15713,Wernsdorf,Brandenburg,BB,Deutschland,DE,13.703,52.3691
15713,Niederlehme,Brandenburg,BB,Deutschland,DE,13.6504,52.3171
15732,Schulzendorf,Brandenburg,BB,Deutschland,DE,13.5984,52.3582
15732,Eichwalde,Brandenburg,BB,Deutschland,DE,13.6167,52.3667
15732,Waltersdorf,Brandenburg,BB,Deutschland,DE,13.5565,52.3623
15738,Zeuthen,Brandenburg,BB,Deutschland,DE,13.6217,52.348
15741,Motzen,Brandenburg,BB,Deutschland,DE,13.5834,52.2039
15741,Bestensee,Brandenburg,BB,Deutschland,DE,13.6373,52.2398
15741,Pätz,Brandenburg,BB,Deutschland,DE,13.6589,52.2251
15741,Gräbendorf,Brandenburg,BB,Deutschland,DE,13.7088,52.2405
15745,Wildau,Brandenburg,BB,Deutschland,DE,13.6333,52.3167
15746,Groß Köris,Brandenburg,BB,Deutschland,DE,13.6594,52.1659
15748,Münchehofe,Brandenburg,BB,Deutschland,DE,13.8343,52.1473
15748,Märkisch Buchholz,Brandenburg,BB,Deutschland,DE,13.7654,52.1096
15749,Ragow,Brandenburg,BB,Deutschland,DE,13.5445,52.2866
15749,Brusendorf,Brandenburg,BB,Deutschland,DE,13.5114,52.3099
15749,Gallun,Brandenburg,BB,Deutschland,DE,13.5606,52.2448
15749,Mittenwalde,Brandenburg,BB,Deutschland,DE,13.5355,52.3024
15749,Kiekebusch,Brandenburg,BB,Deutschland,DE,13.5515,52.3461
15752,Kolberg,Brandenburg,BB,Deutschland,DE,13.8052,52.2439
15752,Streganz,Brandenburg,BB,Deutschland,DE,13.8371,52.2022
15752,Prieros,Brandenburg,BB,Deutschland,DE,13.7708,52.224
15754,Dolgenbrodt,Brandenburg,BB,Deutschland,DE,13.7693,52.243
15754,Friedersdorf,Brandenburg,BB,Deutschland,DE,13.7889,52.2948
15754,Gussow,Brandenburg,BB,Deutschland,DE,13.7321,52.256
15754,Blossin,Brandenburg,BB,Deutschland,DE,13.7992,52.2573
15754,Dannenreich,Brandenburg,BB,Deutschland,DE,13.7484,52.3137
15754,Bindow,Brandenburg,BB,Deutschland,DE,13.7431,52.2841
15754,Wolzig,Brandenburg,BB,Deutschland,DE,13.8376,52.2673
15755,Teupitz,Brandenburg,BB,Deutschland,DE,13.6196,52.1297
15755,Töpchin,Brandenburg,BB,Deutschland,DE,13.5771,52.1715
15755,Schwerin,Brandenburg,BB,Deutschland,DE,13.6333,52.15
15757,Briesen,Brandenburg,BB,Deutschland,DE,13.7132,52.0532
15757,Oderin,Brandenburg,BB,Deutschland,DE,13.7251,52.0746
15757,Freidorf,Brandenburg,BB,Deutschland,DE,13.6962,52.0683
15757,Löpten,Brandenburg,BB,Deutschland,DE,13.6851,52.1471
15757,Halbe,Brandenburg,BB,Deutschland,DE,13.7,52.1167
15806,Nunsdorf,Brandenburg,BB,Deutschland,DE,13.3151,52.2294
15806,Groß Schulzendorf,Brandenburg,BB,Deutschland,DE,13.3511,52.2729
15806,Saalow,Brandenburg,BB,Deutschland,DE,13.3758,52.1944
15806,Glienick,Brandenburg,BB,Deutschland,DE,13.3806,52.2516
15806,Gadsdorf,Brandenburg,BB,Deutschland,DE,13.3246,52.1904
15806,Telz,Brandenburg,BB,Deutschland,DE,13.4944,52.245
15806,Nächst Neuendorf,Brandenburg,BB,Deutschland,DE,13.4167,52.2333
15806,Kallinchen,Brandenburg,BB,Deutschland,DE,13.5597,52.2118
15806,Schöneiche,Brandenburg,BB,Deutschland,DE,13.5141,52.2224
15806,Mellensee,Brandenburg,BB,Deutschland,DE,13.43,52.1833
15806,Kummersdorf-Alexanderdorf,Brandenburg,BB,Deutschland,DE,13.4167,52.1667
15806,Rehagen,Brandenburg,BB,Deutschland,DE,13.369,52.1663
15806,Zossen,Brandenburg,BB,Deutschland,DE,13.4491,52.216
15806,Groß Machnow,Brandenburg,BB,Deutschland,DE,13.4667,52.2667
15827,Dahlewitz,Brandenburg,BB,Deutschland,DE,13.4401,52.3209
15827,Blankenfelde,Brandenburg,BB,Deutschland,DE,13.4121,52.3372
15831,Mahlow,Brandenburg,BB,Deutschland,DE,13.4095,52.3602
15831,Selchow,Brandenburg,BB,Deutschland,DE,13.4722,52.3571
15831,Groß Kienitz,Brandenburg,BB,Deutschland,DE,13.4634,52.3253
15831,Großziethen,Brandenburg,BB,Deutschland,DE,13.4466,52.3964
15831,Jühnsdorf,Brandenburg,BB,Deutschland,DE,13.3849,52.3008
15831,Diepensee,Brandenburg,BB,Deutschland,DE,13.5167,52.3667
15831,Waßmannsdorf,Brandenburg,BB,Deutschland,DE,13.4667,52.3667
15834,Rangsdorf,Brandenburg,BB,Deutschland,DE,13.4195,52.2913
15837,Baruth/Mark,Brandenburg,BB,Deutschland,DE,13.5,52.05
15838,Klausdorf,Brandenburg,BB,Deutschland,DE,13.4064,52.1546
15838,Kummersdorf-Gut,Brandenburg,BB,Deutschland,DE,13.3756,52.1029
15838,Sperenberg,Brandenburg,BB,Deutschland,DE,13.365,52.1411
15838,Wünsdorf,Brandenburg,BB,Deutschland,DE,13.4722,52.1643
15848,Tauche Mittweide,Brandenburg,BB,Deutschland,DE,14.15,52.0667
15848,Tauche Lindenberg,Brandenburg,BB,Deutschland,DE,14.1333,52.2
15848,Plattkow,Brandenburg,BB,Deutschland,DE,14.018,52.1063
15848,Speichrow,Brandenburg,BB,Deutschland,DE,14.2208,52.036
15848,Tauche,Brandenburg,BB,Deutschland,DE,14.1306,52.1292
15848,Tauche Stremmen,Brandenburg,BB,Deutschland,DE,14.1667,52.1333
15848,Tauche Tauche,Brandenburg,BB,Deutschland,DE,14.1667,52.15
15848,Tauche Trebatsch,Brandenburg,BB,Deutschland,DE,14.1667,52.0833
15848,Beeskow,Brandenburg,BB,Deutschland,DE,14.246,52.1729
15848,Tauche Werder,Brandenburg,BB,Deutschland,DE,14.0333,52.1167
15848,Tauche Falkenberg,Brandenburg,BB,Deutschland,DE,14.1333,52.1667
15848,Tauche Briescht,Brandenburg,BB,Deutschland,DE,14.1167,52.1167
15848,Friedland,Brandenburg,BB,Deutschland,DE,14.3104,52.0943
15848,Tauche Ranzig,Brandenburg,BB,Deutschland,DE,14.2,52.1167
15848,Rietz-Neuendorf Behrensdorf,Brandenburg,BB,Deutschland,DE,14.05,52.1833
15848,Tauche Kossenblatt,Brandenburg,BB,Deutschland,DE,14.0667,52.1167
15848,Friedland Leißnitz,Brandenburg,BB,Deutschland,DE,14.2167,52.1167
15848,Tauche Giesensdorf,Brandenburg,BB,Deutschland,DE,14.1333,52.1333
15848,Friedland Friedland,Brandenburg,BB,Deutschland,DE,14.2667,52.1
15848,Tauche Görsdorf bei Beeskow,Brandenburg,BB,Deutschland,DE,14.1,52.15
15848,Beeskow Bornow,Brandenburg,BB,Deutschland,DE,14.2,52.1667
15848,Friedland Schadow,Brandenburg,BB,Deutschland,DE,14.2667,52.05
15848,Friedland Pieskow,Brandenburg,BB,Deutschland,DE,14.2333,52.05
15848,Rietz-Neuendorf Buckow,Brandenburg,BB,Deutschland,DE,14.1667,52.1833
15848,Rietz-Neuendorf Görzig,Brandenburg,BB,Deutschland,DE,14.2,52.2333
15848,Beeskow Kohlsdorf,Brandenburg,BB,Deutschland,DE,14.2,52.1667
15848,Friedland Groß Briesen,Brandenburg,BB,Deutschland,DE,14.3833,52.1167
15848,Ragow-Merz,Brandenburg,BB,Deutschland,DE,14.325,52.2
15848,Friedland Klein Muckrow,Brandenburg,BB,Deutschland,DE,14.4333,52.05
15848,Rietz-Neuendorf Pfaffendorf,Brandenburg,BB,Deutschland,DE,14.1667,52.2667
15848,Ragow-Merz Merz,Brandenburg,BB,Deutschland,DE,14.3,52.2
15848,Friedland Lindow,Brandenburg,BB,Deutschland,DE,14.3,52.1
15848,Rietz-Neuendorf Neubrück (Spree),Brandenburg,BB,Deutschland,DE,14.2833,52.2667
15848,Friedland Zeust,Brandenburg,BB,Deutschland,DE,14.2667,52.1333
15848,Rietz-Neuendorf Wilmersdorf,Brandenburg,BB,Deutschland,DE,14.1333,52.2667
15848,Beeskow Krügersdorf,Brandenburg,BB,Deutschland,DE,14.3333,52.15
15848,Rietz-Neuendorf Sauen,Brandenburg,BB,Deutschland,DE,14.2167,52.2667
15848,Rietz-Neuendorf Ahrensdorf,Brandenburg,BB,Deutschland,DE,14.0833,52.1667
15848,Friedland Karras,Brandenburg,BB,Deutschland,DE,14.2833,52.0833
15848,Beeskow Radinkendorf,Brandenburg,BB,Deutschland,DE,14.2667,52.2167
15848,Beeskow Neuendorf,Brandenburg,BB,Deutschland,DE,14.2333,52.1833
15848,Friedland Kummerow,Brandenburg,BB,Deutschland,DE,14.2333,52.15
15848,Rietz-Neuendorf Groß Rietz,Brandenburg,BB,Deutschland,DE,14.2167,52.2167
15848,Rietz-Neuendorf Drahendorf,Brandenburg,BB,Deutschland,DE,14.2333,52.2833
15848,Rietz-Neuendorf,Brandenburg,BB,Deutschland,DE,14.1619,52.2321
15848,Friedland Weichensdorf,Brandenburg,BB,Deutschland,DE,14.35,52.0833
15848,Friedland Chossewitz,Brandenburg,BB,Deutschland,DE,14.4333,52.1
15848,Friedland Niewisch,Brandenburg,BB,Deutschland,DE,14.2333,52.0833
15848,Friedland Günthersdorf,Brandenburg,BB,Deutschland,DE,14.3,52.0833
15848,Ragow-Merz Ragow,Brandenburg,BB,Deutschland,DE,14.35,52.2
15848,Rietz-Neuendorf Birkholz,Brandenburg,BB,Deutschland,DE,14.2,52.2
15848,Beeskow Schneeberg,Brandenburg,BB,Deutschland,DE,14.3333,52.1667
15848,Friedland Reudnitz,Brandenburg,BB,Deutschland,DE,14.3333,52.1333
15848,Rietz-Neuendorf Herzberg,Brandenburg,BB,Deutschland,DE,14.1167,52.2167
15848,Beeskow Oegeln,Brandenburg,BB,Deutschland,DE,14.2833,52.1833
15859,Storkow (Mark),Brandenburg,BB,Deutschland,DE,13.8964,52.2238
15859,Kehrigk,Brandenburg,BB,Deutschland,DE,13.9192,52.1615
15859,Philadelphia,Brandenburg,BB,Deutschland,DE,13.8954,52.2513
15859,Storkow (Mark) Bugk,Brandenburg,BB,Deutschland,DE,13.9167,52.2
15859,Rieplos,Brandenburg,BB,Deutschland,DE,13.9066,52.2835
15859,Kummersdorf,Brandenburg,BB,Deutschland,DE,13.8659,52.271
15859,Storkow (Mark) Groß Eichholz,Brandenburg,BB,Deutschland,DE,13.8667,52.1667
15859,Storkow (Mark) Alt Stahnsdorf,Brandenburg,BB,Deutschland,DE,13.8833,52.2833
15859,Storkow (Mark) Selchow,Brandenburg,BB,Deutschland,DE,13.8667,52.2167
15859,Storkow (Mark) Schwerin,Brandenburg,BB,Deutschland,DE,13.8333,52.2
15859,Storkow (Mark) Wochowsee,Brandenburg,BB,Deutschland,DE,13.9,52.2333
15859,Storkow (Mark) Groß Schauen,Brandenburg,BB,Deutschland,DE,13.9167,52.2333
15859,Storkow (Mark) Limsdorf,Brandenburg,BB,Deutschland,DE,14.0167,52.1667
15859,Storkow (Mark) Storkow,Brandenburg,BB,Deutschland,DE,13.9333,52.25
15859,Storkow (Mark) Kummersdorf,Brandenburg,BB,Deutschland,DE,13.8667,52.2667
15859,Storkow (Mark) Görsdorf bei Storkow,Brandenburg,BB,Deutschland,DE,13.8333,52.2333
15864,Diensdorf-Radlow,Brandenburg,BB,Deutschland,DE,14.05,52.2333
15864,Wendisch Rietz,Brandenburg,BB,Deutschland,DE,14.0084,52.2161
15864,Rietz-Neuendorf Glienicke,Brandenburg,BB,Deutschland,DE,14.0833,52.2
15864,Rietz-Neuendorf,Brandenburg,BB,Deutschland,DE,14.1619,52.2321
15868,Jamlitz,Brandenburg,BB,Deutschland,DE,14.361,51.9913
15868,Friedland Groß Muckrow,Brandenburg,BB,Deutschland,DE,14.4333,52.075
15868,Doberburg,Brandenburg,BB,Deutschland,DE,14.2439,52.005
15868,Friedland,Brandenburg,BB,Deutschland,DE,14.3104,52.0943
15868,Lieberose,Brandenburg,BB,Deutschland,DE,14.2999,51.9849
15868,Ullersdorf,Brandenburg,BB,Deutschland,DE,14.368,52.0385
15868,Leeskow,Brandenburg,BB,Deutschland,DE,14.4105,52.0179
15890,Siehdichum Rießen,Brandenburg,BB,Deutschland,DE,14.5333,52.2
15890,Siehdichum Pohlitz,Brandenburg,BB,Deutschland,DE,14.5833,52.1833
15890,Schlaubetal Bremsdorf,Brandenburg,BB,Deutschland,DE,14.5,52.15
15890,Siehdichum,Brandenburg,BB,Deutschland,DE,14.5333,52.1944
15890,Eisenhüttenstadt Fürstenberg,Brandenburg,BB,Deutschland,DE,14.6667,52.15
15890,Vogelsang,Brandenburg,BB,Deutschland,DE,14.6637,52.1824
15890,Schlaubetal,Brandenburg,BB,Deutschland,DE,14.5111,52.1289
15890,Siehdichum Schernsdorf,Brandenburg,BB,Deutschland,DE,14.4833,52.2
15890,Schlaubetal Kieselwitz,Brandenburg,BB,Deutschland,DE,14.5,52.1167
15890,Eisenhüttenstadt Diehlo,Brandenburg,BB,Deutschland,DE,14.6,52.1333
15890,Eisenhüttenstadt Schönfließ,Brandenburg,BB,Deutschland,DE,14.6167,52.15
15890,Schlaubetal Fünfeichen,Brandenburg,BB,Deutschland,DE,14.5333,52.15
15890,Eisenhüttenstadt,Brandenburg,BB,Deutschland,DE,14.555,52.1601
15898,Neuzelle,Brandenburg,BB,Deutschland,DE,14.6028,52.0639
15898,Neuzelle Treppeln,Brandenburg,BB,Deutschland,DE,14.5333,52.0667
15898,Neuzelle Bomsdorf,Brandenburg,BB,Deutschland,DE,14.65,52.0333
15898,Neißemünde Coschen,Brandenburg,BB,Deutschland,DE,14.7333,52.0167
15898,Neuzelle Göhlen,Brandenburg,BB,Deutschland,DE,14.5833,52.05
15898,Neuzelle Bahro,Brandenburg,BB,Deutschland,DE,14.5667,52.05
15898,Neuzelle Möbiskruge,Brandenburg,BB,Deutschland,DE,14.6,52.1
15898,Lawitz,Brandenburg,BB,Deutschland,DE,14.6415,52.107
15898,Neuzelle Henzendorf,Brandenburg,BB,Deutschland,DE,14.5167,52.05
15898,Neuzelle Neuzelle,Brandenburg,BB,Deutschland,DE,14.6333,52.0833
15898,Neißemünde,Brandenburg,BB,Deutschland,DE,14.7333,52.05
15898,Neuzelle Steinsdorf,Brandenburg,BB,Deutschland,DE,14.6667,52.0333
15898,Neißemünde Breslack,Brandenburg,BB,Deutschland,DE,14.7333,52.05
15898,Neuzelle Schwerzko,Brandenburg,BB,Deutschland,DE,14.6167,52.0667
15898,Neißemünde Wellmitz,Brandenburg,BB,Deutschland,DE,14.7167,52.0667
15898,Neuzelle Ossendorf,Brandenburg,BB,Deutschland,DE,14.5667,52.0667
15898,Neuzelle Kobbeln,Brandenburg,BB,Deutschland,DE,14.65,52.1
15898,Neuzelle Streichwitz,Brandenburg,BB,Deutschland,DE,14.65,52.0667
15898,Neißemünde Ratzdorf,Brandenburg,BB,Deutschland,DE,14.75,52.0667
15907,Lübben (Spreewald),Brandenburg,BB,Deutschland,DE,13.8852,51.9455
15910,Krausnick-Groß Wasserburg,Brandenburg,BB,Deutschland,DE,13.8489,52.0462
15910,Pretschen,Brandenburg,BB,Deutschland,DE,13.9927,52.0899
15910,Alt-Schadow,Brandenburg,BB,Deutschland,DE,13.95,52.1333
15910,Schlepzig,Brandenburg,BB,Deutschland,DE,13.9,52.0333
15910,Unterspreewald,Brandenburg,BB,Deutschland,DE,13.8902,52.091
15910,Kuschkow,Brandenburg,BB,Deutschland,DE,13.958,52.0595
15910,Wittmannsdorf-Bückchen,Brandenburg,BB,Deutschland,DE,14.05,52.0667
15910,Hohenbrück-Neu Schadow,Brandenburg,BB,Deutschland,DE,13.916,52.0932
15910,Rietzneuendorf-Staakow,Brandenburg,BB,Deutschland,DE,13.6833,52.0191
15910,Schuhlen-Wiese,Brandenburg,BB,Deutschland,DE,14.107,52.0609
15910,Schönwald,Brandenburg,BB,Deutschland,DE,13.723,51.9853
15910,Gröditsch,Brandenburg,BB,Deutschland,DE,13.9996,52.0524
15910,Dürrenhofe,Brandenburg,BB,Deutschland,DE,13.9488,52.0258
15913,Klein Leine,Brandenburg,BB,Deutschland,DE,14.0571,51.9738
15913,Mochow,Brandenburg,BB,Deutschland,DE,14.1893,51.978
15913,Alt Zauche,Brandenburg,BB,Deutschland,DE,14.0149,51.9168
15913,Ressen-Zaue,Brandenburg,BB,Deutschland,DE,14.162,52.0359
15913,Groß Leine,Brandenburg,BB,Deutschland,DE,14.0636,51.997
15913,Caminchen,Brandenburg,BB,Deutschland,DE,14.07,51.9529
15913,Dollgen,Brandenburg,BB,Deutschland,DE,14.0385,52.018
15913,Butzen,Brandenburg,BB,Deutschland,DE,14.168,51.9343
15913,Leibchel,Brandenburg,BB,Deutschland,DE,14.0777,52.029
15913,Byhleguhre,Brandenburg,BB,Deutschland,DE,14.1745,51.8793
15913,Straupitz,Brandenburg,BB,Deutschland,DE,14.1228,51.9136
15913,Neu Zauche,Brandenburg,BB,Deutschland,DE,14.0881,51.9276
15913,Wußwerk,Brandenburg,BB,Deutschland,DE,14.0504,51.927
15913,Byhlen,Brandenburg,BB,Deutschland,DE,14.1862,51.9093
15913,Jessern,Brandenburg,BB,Deutschland,DE,14.1944,52.0242
15913,Briesensee,Brandenburg,BB,Deutschland,DE,14.0047,51.956
15913,Laasow,Brandenburg,BB,Deutschland,DE,14.1304,51.9448
15913,Biebersdorf,Brandenburg,BB,Deutschland,DE,13.9741,51.9847
15913,Sacrow-Waldow,Brandenburg,BB,Deutschland,DE,14.1285,51.9558
15913,Goyatz,Brandenburg,BB,Deutschland,DE,14.1758,52.0187
15913,Krugau,Brandenburg,BB,Deutschland,DE,13.9827,52.0272
15913,Lamsfeld-Groß Liebitz,Brandenburg,BB,Deutschland,DE,14.2327,51.975
15913,Glietz,Brandenburg,BB,Deutschland,DE,14.0818,52.0089
15913,Groß Leuthen,Brandenburg,BB,Deutschland,DE,14.0374,52.038
15926,Heideblick Falkenberg,Brandenburg,BB,Deutschland,DE,13.5684,51.852
15926,Walddrehna,Brandenburg,BB,Deutschland,DE,13.6269,51.7778
15926,Heideblick Gehren,Brandenburg,BB,Deutschland,DE,13.6469,51.8033
15926,Duben,Brandenburg,BB,Deutschland,DE,13.8074,51.8976
15926,Heideblick Riedebeck,Brandenburg,BB,Deutschland,DE,13.6799,51.8055
15926,Heideblick Goßmar,Brandenburg,BB,Deutschland,DE,13.6996,51.82
15926,Cahnsdorf,Brandenburg,BB,Deutschland,DE,13.747,51.8504
15926,Heideblick Wüstermarke,Brandenburg,BB,Deutschland,DE,13.6,51.8182
15926,Heideblick Langengrassau,Brandenburg,BB,Deutschland,DE,13.6424,51.8333
15926,Heideblick Bornsdorf,Brandenburg,BB,Deutschland,DE,13.6939,51.7732
15926,Schlabendorf,Brandenburg,BB,Deutschland,DE,13.8206,51.8084
15926,Görlsdorf,Brandenburg,BB,Deutschland,DE,13.7554,51.8181
15926,Heideblick Beesdau,Brandenburg,BB,Deutschland,DE,13.7399,51.7915
15926,Heideblick Weißack,Brandenburg,BB,Deutschland,DE,13.6937,51.7497
15926,Bersteland,Brandenburg,BB,Deutschland,DE,13.776,51.9425
15926,Heideblick Waltersdorf,Brandenburg,BB,Deutschland,DE,13.6504,51.8215
15926,Bersteland Niewitz,Brandenburg,BB,Deutschland,DE,13.7865,51.937
15926,Heideblick,Brandenburg,BB,Deutschland,DE,13.6551,51.8127
15926,Luckau,Brandenburg,BB,Deutschland,DE,13.6741,51.8297
15926,Heideblick Pitschen-Pickel,Brandenburg,BB,Deutschland,DE,13.5905,51.8715
15926,Bersteland Reichwalde,Brandenburg,BB,Deutschland,DE,13.7256,51.9273
15926,Bersteland Freiwalde,Brandenburg,BB,Deutschland,DE,13.7461,51.9575
15936,Steinreich Glienig,Brandenburg,BB,Deutschland,DE,13.4448,51.9411
15936,Steinreich,Brandenburg,BB,Deutschland,DE,13.4934,51.9495
15936,Dahmetal,Brandenburg,BB,Deutschland,DE,13.5,51.9067
15936,Dahme/Mark,Brandenburg,BB,Deutschland,DE,13.4342,51.8941
15938,Steinreich Sellendorf,Brandenburg,BB,Deutschland,DE,13.5419,51.9588
15938,Drahnsdorf,Brandenburg,BB,Deutschland,DE,13.5833,51.9167
15938,Kasel-Golzig,Brandenburg,BB,Deutschland,DE,13.7,51.9333
15938,Steinreich,Brandenburg,BB,Deutschland,DE,13.4934,51.9495
15938,Golßen,Brandenburg,BB,Deutschland,DE,13.6011,51.972
16225,Eberswalde,Brandenburg,BB,Deutschland,DE,13.8218,52.8342
16227,Eberswalde,Brandenburg,BB,Deutschland,DE,13.8333,52.8333
16230,Melchow,Brandenburg,BB,Deutschland,DE,13.7065,52.7761
16230,Sydower Fließ,Brandenburg,BB,Deutschland,DE,13.723,52.7274
16230,Britz,Brandenburg,BB,Deutschland,DE,13.8112,52.8873
16230,Chorin,Brandenburg,BB,Deutschland,DE,13.8715,52.902
16230,Breydin,Brandenburg,BB,Deutschland,DE,13.8153,52.7694
16244,Altenhof,Brandenburg,BB,Deutschland,DE,13.7132,52.9148
16244,Finowfurt,Brandenburg,BB,Deutschland,DE,13.7578,52.8583
16247,Friedrichswalde,Brandenburg,BB,Deutschland,DE,13.7068,53.0292
16247,Ziethen,Brandenburg,BB,Deutschland,DE,13.9167,52.9667
16247,Neugrimnitz,Brandenburg,BB,Deutschland,DE,13.8297,52.9752
16247,Althüttendorf,Brandenburg,BB,Deutschland,DE,13.8072,52.9623
16247,Joachimsthal,Brandenburg,BB,Deutschland,DE,13.7449,52.9794
16248,Liepe,Brandenburg,BB,Deutschland,DE,13.9695,52.8621
16248,Hohenfinow,Brandenburg,BB,Deutschland,DE,13.9249,52.8134
16248,Niederfinow,Brandenburg,BB,Deutschland,DE,13.9284,52.8337
16248,Bölkendorf,Brandenburg,BB,Deutschland,DE,14.0009,52.9506
16248,Oderberg,Brandenburg,BB,Deutschland,DE,14.0451,52.8657
16248,Hohensaaten,Brandenburg,BB,Deutschland,DE,14.142,52.8743
16248,Parsteinsee,Brandenburg,BB,Deutschland,DE,14.05,52.9333
16248,Lunow-Stolzenhagen,Brandenburg,BB,Deutschland,DE,14.1083,52.9333
16259,Bad Freienwalde,Brandenburg,BB,Deutschland,DE,14.0304,52.7873
16259,Neulewin,Brandenburg,BB,Deutschland,DE,14.2792,52.7243
16259,Falkenberg,Brandenburg,BB,Deutschland,DE,13.958,52.8051
16259,Neulewin Neulietzegöricke,Brandenburg,BB,Deutschland,DE,14.25,52.7667
16259,Schiffmühle,Brandenburg,BB,Deutschland,DE,14.0446,52.8068
16259,Neuenhagen,Brandenburg,BB,Deutschland,DE,14.053,52.8366
16259,Höhenland Steinbeck,Brandenburg,BB,Deutschland,DE,13.8753,52.7586
16259,Hohenwutzen,Brandenburg,BB,Deutschland,DE,14.1184,52.8441
16259,Tiefensee,Brandenburg,BB,Deutschland,DE,13.8356,52.68
16259,Höhenland Wölsickendorf-Wollenberg,Brandenburg,BB,Deutschland,DE,13.9049,52.7638
16259,Altglietzen,Brandenburg,BB,Deutschland,DE,14.0896,52.8342
16259,Falkenberg Kruge/Gersdorf,Brandenburg,BB,Deutschland,DE,13.8918,52.7707
16259,Bralitz,Brandenburg,BB,Deutschland,DE,14.0059,52.8351
16259,Oderaue Altreetz,Brandenburg,BB,Deutschland,DE,14.1667,52.7667
16259,Beiersdorf-Freudenberg Freudenberg,Brandenburg,BB,Deutschland,DE,13.8199,52.7007
16259,Beiersdorf-Freudenberg Beiersdorf,Brandenburg,BB,Deutschland,DE,13.783,52.6926
16259,Falkenberg Falkenberg/Mark,Brandenburg,BB,Deutschland,DE,13.957,52.8058
16259,Heckelberg-Brunow Brunow,Brandenburg,BB,Deutschland,DE,13.874,52.7297
16259,Oderaue Neureetz,Brandenburg,BB,Deutschland,DE,14.15,52.7833
16259,Oderaue Neurüdnitz,Brandenburg,BB,Deutschland,DE,14.1833,52.8
16259,Oderaue Mädewitz,Brandenburg,BB,Deutschland,DE,14.3313,52.7509
16259,Heckelberg-Brunow,Brandenburg,BB,Deutschland,DE,13.8577,52.735
16259,Oderaue Wustrow,Brandenburg,BB,Deutschland,DE,14.2188,52.7603
16259,Oderaue Zäckericker Loose,Brandenburg,BB,Deutschland,DE,14.2167,52.7833
16259,Höhenland Wölsickendorf-Wollenberg,Brandenburg,BB,Deutschland,DE,13.8977,52.7941
16259,Falkenberg Kruge/Gersdorf,Brandenburg,BB,Deutschland,DE,13.8913,52.7684
16259,Falkenberg Kruge/Gersdorf,Brandenburg,BB,Deutschland,DE,13.8783,52.7553
16259,Oderaue Neuküstrinchen,Brandenburg,BB,Deutschland,DE,14.1667,52.8
16259,Oderaue,Brandenburg,BB,Deutschland,DE,14.2042,52.7773
16259,Falkenberg Kruge/Gersdorf,Brandenburg,BB,Deutschland,DE,13.9039,52.7793
16259,Höhenland Leuenberg,Brandenburg,BB,Deutschland,DE,13.8701,52.7227
16259,Höhenland,Brandenburg,BB,Deutschland,DE,13.8823,52.7534
16259,Oderaue Mädewitz,Brandenburg,BB,Deutschland,DE,14.3396,52.74
16259,Heckelberg-Brunow Heckelberg,Brandenburg,BB,Deutschland,DE,13.8414,52.7403
16259,Höhenland Wölsickendorf-Wollenberg,Brandenburg,BB,Deutschland,DE,13.9013,52.7789
16259,Oderaue Wustrow,Brandenburg,BB,Deutschland,DE,14.2026,52.7638
16259,Falkenberg Dannenberg/Mark,Brandenburg,BB,Deutschland,DE,13.957,52.7736
16259,Oderaue Mädewitz,Brandenburg,BB,Deutschland,DE,14.3355,52.7455
16259,Neulewin Güstebieser Loose,Brandenburg,BB,Deutschland,DE,14.3,52.75
16259,Oderaue Wustrow,Brandenburg,BB,Deutschland,DE,14.2107,52.7621
16259,Neulewin Neulewin,Brandenburg,BB,Deutschland,DE,14.2833,52.7167
16259,Beiersdorf-Freudenberg,Brandenburg,BB,Deutschland,DE,13.8014,52.6967
16269,Bliesdorf Bliesdorf,Brandenburg,BB,Deutschland,DE,14.15,52.7
16269,Bliesdorf Metzdorf,Brandenburg,BB,Deutschland,DE,14.1761,52.6586
16269,Wriezen,Brandenburg,BB,Deutschland,DE,14.1343,52.7209
16269,Bliesdorf Kunersdorf,Brandenburg,BB,Deutschland,DE,14.1584,52.6747
16269,Wriezener Höhe,Brandenburg,BB,Deutschland,DE,14.0583,52.7
16269,Bliesdorf,Brandenburg,BB,Deutschland,DE,14.1595,52.693
16278,Herzsprung,Brandenburg,BB,Deutschland,DE,13.9876,52.9755
16278,Kerkow,Brandenburg,BB,Deutschland,DE,13.9883,53.0373
16278,Crussow,Brandenburg,BB,Deutschland,DE,14.0801,52.9998
16278,Welsow,Brandenburg,BB,Deutschland,DE,14.0022,53.0692
16278,Bruchhagen,Brandenburg,BB,Deutschland,DE,13.9747,53.0813
16278,Neukünkendorf,Brandenburg,BB,Deutschland,DE,14.0394,52.973
16278,Pinnow,Brandenburg,BB,Deutschland,DE,14.0856,53.062
16278,Gellmersdorf,Brandenburg,BB,Deutschland,DE,14.0707,52.9684
16278,Greiffenberg,Brandenburg,BB,Deutschland,DE,13.9552,53.0873
16278,Frauenhagen,Brandenburg,BB,Deutschland,DE,14.0422,53.0771
16278,Görlsdorf,Brandenburg,BB,Deutschland,DE,13.9423,53.0532
16278,Wilmersdorf,Brandenburg,BB,Deutschland,DE,13.9061,53.1109
16278,Biesenbrow,Brandenburg,BB,Deutschland,DE,14.0129,53.1198
16278,Angermünde,Brandenburg,BB,Deutschland,DE,13.9992,53.015
16278,Mürow,Brandenburg,BB,Deutschland,DE,14.0333,53.0532
16278,Günterberg,Brandenburg,BB,Deutschland,DE,13.964,53.0971
16278,Stolpe/Oder,Brandenburg,BB,Deutschland,DE,14.1167,52.9833
16278,Schmargendorf,Brandenburg,BB,Deutschland,DE,13.9585,52.9815
16278,Mark Landin,Brandenburg,BB,Deutschland,DE,14.0917,53.1111
16278,Schmiedeberg,Brandenburg,BB,Deutschland,DE,13.9521,53.143
16278,Wolletz,Brandenburg,BB,Deutschland,DE,13.9014,53.0249
16278,Schöneberg,Brandenburg,BB,Deutschland,DE,14.1426,53.0085
16278,Steinhöfel,Brandenburg,BB,Deutschland,DE,13.8787,53.0946
16303,Schwedt/Oder,Brandenburg,BB,Deutschland,DE,14.2711,53.066
16306,Woltersdorf,Brandenburg,BB,Deutschland,DE,14.2167,53.1795
16306,Stendell,Brandenburg,BB,Deutschland,DE,14.1661,53.1435
16306,Biesendahlshof,Brandenburg,BB,Deutschland,DE,14.2092,53.1964
16306,Wartin,Brandenburg,BB,Deutschland,DE,14.157,53.2508
16306,Luckow-Petershagen,Brandenburg,BB,Deutschland,DE,14.2573,53.2435
16306,Blumberg,Brandenburg,BB,Deutschland,DE,14.1525,53.2061
16306,Berkholz-Meyenburg,Brandenburg,BB,Deutschland,DE,14.2167,53.05
16306,Hohenselchow,Brandenburg,BB,Deutschland,DE,14.2807,53.205
16306,Groß Pinnow,Brandenburg,BB,Deutschland,DE,14.2762,53.1842
16306,Friedrichsthal,Brandenburg,BB,Deutschland,DE,14.3464,53.1581
16306,Passow,Brandenburg,BB,Deutschland,DE,14.1142,53.1429
16306,Zichow,Brandenburg,BB,Deutschland,DE,14.0385,53.1893
16306,Schönow,Brandenburg,BB,Deutschland,DE,14.153,53.1789
16306,Casekow,Brandenburg,BB,Deutschland,DE,14.2082,53.2112
16306,Vierraden,Brandenburg,BB,Deutschland,DE,14.2934,53.0967
16307,Neurochlitz,Brandenburg,BB,Deutschland,DE,14.4067,53.2803
16307,Tantow,Brandenburg,BB,Deutschland,DE,14.351,53.2716
16307,Rosow,Brandenburg,BB,Deutschland,DE,14.3863,53.3057
16307,Mescherin,Brandenburg,BB,Deutschland,DE,14.43,53.2472
16307,Hohenreinkendorf,Brandenburg,BB,Deutschland,DE,14.3303,53.2304
16307,Schönfeld,Brandenburg,BB,Deutschland,DE,14.2916,53.2726
16307,Geesow,Brandenburg,BB,Deutschland,DE,14.3791,53.2537
16307,Gartz (Oder),Brandenburg,BB,Deutschland,DE,14.3833,53.2
16307,Radekow,Brandenburg,BB,Deutschland,DE,14.3531,53.3002
16321,Danewitz,Brandenburg,BB,Deutschland,DE,13.6658,52.7347
16321,Lobetal,Brandenburg,BB,Deutschland,DE,13.5921,52.7279
16321,Rüdnitz,Brandenburg,BB,Deutschland,DE,13.625,52.7214
16321,Börnicke,Brandenburg,BB,Deutschland,DE,13.638,52.663
16321,Lindenberg,Brandenburg,BB,Deutschland,DE,13.5244,52.6026
16321,Schönow,Brandenburg,BB,Deutschland,DE,13.5364,52.6771
16321,Bernau,Brandenburg,BB,Deutschland,DE,13.5965,52.6821
16341,Zepernick,Brandenburg,BB,Deutschland,DE,13.5409,52.6509
16341,Schwanebeck,Brandenburg,BB,Deutschland,DE,13.5441,52.6251
16348,Wandlitz,Brandenburg,BB,Deutschland,DE,13.458,52.742
16348,Marienwerder,Brandenburg,BB,Deutschland,DE,13.5993,52.8421
16348,Ruhlsdorf,Brandenburg,BB,Deutschland,DE,13.5568,52.8235
16348,Stolzenhagen,Brandenburg,BB,Deutschland,DE,13.4384,52.7781
16348,Groß Schönebeck (Schorfheide),Brandenburg,BB,Deutschland,DE,13.5167,52.9
16348,Klosterfelde,Brandenburg,BB,Deutschland,DE,13.4789,52.7971
16348,Zerpenschleuse,Brandenburg,BB,Deutschland,DE,13.5279,52.8521
16348,Prenden,Brandenburg,BB,Deutschland,DE,13.549,52.7921
16352,Basdorf,Brandenburg,BB,Deutschland,DE,13.4387,52.7126
16352,Schönerlinde,Brandenburg,BB,Deutschland,DE,13.445,52.6539
16352,Schönwalde,Brandenburg,BB,Deutschland,DE,13.44,52.6779
16356,Wilmersdorf,Brandenburg,BB,Deutschland,DE,13.6873,52.6639
16356,Werneuchen,Brandenburg,BB,Deutschland,DE,13.7344,52.6328
16356,Mehrow,Brandenburg,BB,Deutschland,DE,13.6155,52.5709
16356,Blumberg,Brandenburg,BB,Deutschland,DE,13.6849,52.6356
16356,Hirschfelde,Brandenburg,BB,Deutschland,DE,13.7993,52.6367
16356,Eiche,Brandenburg,BB,Deutschland,DE,13.5891,52.5635
16356,Ahrensfelde,Brandenburg,BB,Deutschland,DE,13.5797,52.5766
16356,Seefeld,Brandenburg,BB,Deutschland,DE,13.6801,52.6224
16356,Krummensee,Brandenburg,BB,Deutschland,DE,13.6926,52.5962
16356,Schönfeld,Brandenburg,BB,Deutschland,DE,13.5667,52.8333
16359,Lanke,Brandenburg,BB,Deutschland,DE,13.5653,52.7609
16359,Biesenthal,Brandenburg,BB,Deutschland,DE,13.6442,52.7662
16515,Oranienburg,Brandenburg,BB,Deutschland,DE,13.242,52.7558
16515,Freienhagen,Brandenburg,BB,Deutschland,DE,13.2746,52.8261
16515,Friedrichsthal,Brandenburg,BB,Deutschland,DE,13.2799,52.7947
16515,Wensickendorf,Brandenburg,BB,Deutschland,DE,13.3766,52.7553
16515,Nassenheide,Brandenburg,BB,Deutschland,DE,13.2146,52.8148
16515,Schmachtenhagen,Brandenburg,BB,Deutschland,DE,13.3259,52.7682
16515,Zehlendorf,Brandenburg,BB,Deutschland,DE,13.3878,52.7838
16515,Neuholland,Brandenburg,BB,Deutschland,DE,13.3257,52.8596
16515,Zühlsdorf,Brandenburg,BB,Deutschland,DE,13.3876,52.73
16515,Malz,Brandenburg,BB,Deutschland,DE,13.2922,52.803
16540,Hohen Neuendorf,Brandenburg,BB,Deutschland,DE,13.2778,52.6763
16540,Stolpe,Brandenburg,BB,Deutschland,DE,13.2593,52.661
16547,Birkenwerder,Brandenburg,BB,Deutschland,DE,13.2833,52.6833
16548,Glienicke/Nordbahn,Brandenburg,BB,Deutschland,DE,13.3075,52.6351
16552,Schildow,Brandenburg,BB,Deutschland,DE,13.376,52.6363
16556,Borgsdorf,Brandenburg,BB,Deutschland,DE,13.2767,52.7129
16559,Hammer,Brandenburg,BB,Deutschland,DE,13.4395,52.8797
16559,Kreuzbruch,Brandenburg,BB,Deutschland,DE,13.4225,52.8404
16559,Liebenwalde,Brandenburg,BB,Deutschland,DE,13.3947,52.8713
16559,Liebenthal,Brandenburg,BB,Deutschland,DE,13.4612,52.9128
16562,Bergfelde,Brandenburg,BB,Deutschland,DE,13.3186,52.6729
16565,Lehnitz,Brandenburg,BB,Deutschland,DE,13.2627,52.7405
16567,Schönfließ,Brandenburg,BB,Deutschland,DE,13.3382,52.6555
16567,Mühlenbeck,Brandenburg,BB,Deutschland,DE,13.3769,52.6647
16727,Oberkrämer,Brandenburg,BB,Deutschland,DE,13.3167,52.5833
16727,Velten,Brandenburg,BB,Deutschland,DE,13.1753,52.6915
16761,Hennigsdorf,Brandenburg,BB,Deutschland,DE,13.2042,52.636
16766,Kremmen,Brandenburg,BB,Deutschland,DE,13.0252,52.7622
16766,Oberkrämer,Brandenburg,BB,Deutschland,DE,13.3167,52.5833
16767,Leegebruch,Brandenburg,BB,Deutschland,DE,13.193,52.7234
16767,Germendorf,Brandenburg,BB,Deutschland,DE,13.1701,52.7499
16775,Tornow,Brandenburg,BB,Deutschland,DE,13.2875,53.0632
16775,Schulzendorf,Brandenburg,BB,Deutschland,DE,13.049,53.0358
16775,Gransee,Brandenburg,BB,Deutschland,DE,13.1575,53.007
16775,Bredereiche,Brandenburg,BB,Deutschland,DE,13.2426,53.1366
16775,Krewelin,Brandenburg,BB,Deutschland,DE,13.386,52.9443
16775,Badingen,Brandenburg,BB,Deutschland,DE,13.2523,52.9987
16775,Großwoltersdorf,Brandenburg,BB,Deutschland,DE,13.1,53.0667
16775,Kappe,Brandenburg,BB,Deutschland,DE,13.4391,52.9665
16775,Burgwall,Brandenburg,BB,Deutschland,DE,13.3016,53.049
16775,Zabelsdorf,Brandenburg,BB,Deutschland,DE,13.2533,53.0476
16775,Sonnenberg,Brandenburg,BB,Deutschland,DE,13.0884,53.0192
16775,Schönermark,Brandenburg,BB,Deutschland,DE,13.1202,53.007
16775,Blumenow,Brandenburg,BB,Deutschland,DE,13.2508,53.0998
16775,Rönnebeck,Brandenburg,BB,Deutschland,DE,13.0407,53.0042
16775,Barsdorf,Brandenburg,BB,Deutschland,DE,13.2882,53.1021
16775,Marienthal,Brandenburg,BB,Deutschland,DE,13.2785,53.0547
16775,Mildenberg,Brandenburg,BB,Deutschland,DE,13.2879,53.0109
16775,Stechlin,Brandenburg,BB,Deutschland,DE,13.0417,53.1056
16775,Klein-Mutz,Brandenburg,BB,Deutschland,DE,13.2833,52.9667
16775,Löwenberger Land,Brandenburg,BB,Deutschland,DE,13.1729,52.8958
16792,Wesendorf,Brandenburg,BB,Deutschland,DE,13.38,52.983
16792,Kurtschlag,Brandenburg,BB,Deutschland,DE,13.478,52.9988
16792,Zehdenick,Brandenburg,BB,Deutschland,DE,13.3317,52.9785
16798,Himmelpfort,Brandenburg,BB,Deutschland,DE,13.2278,53.1775
16798,Altthymen,Brandenburg,BB,Deutschland,DE,13.1627,53.2397
16798,Zootzen,Brandenburg,BB,Deutschland,DE,13.2114,53.1529
16798,Steinförde,Brandenburg,BB,Deutschland,DE,13.0896,53.1873
16798,Fürstenberg/Havel,Brandenburg,BB,Deutschland,DE,13.1708,53.1864
16816,Neuruppin,Brandenburg,BB,Deutschland,DE,12.8031,52.9282
16818,Fehrbellin Langen,Brandenburg,BB,Deutschland,DE,12.8,52.85
16818,Dabergotz,Brandenburg,BB,Deutschland,DE,12.7247,52.9031
16818,Temnitzquell,Brandenburg,BB,Deutschland,DE,12.6444,53.0056
16818,Walsleben,Brandenburg,BB,Deutschland,DE,12.6645,52.9383
16818,Märkisch Linden,Brandenburg,BB,Deutschland,DE,12.7083,52.9292
16818,Basdorf,Brandenburg,BB,Deutschland,DE,12.7313,53.0909
16818,Fehrbellin Wall,Brandenburg,BB,Deutschland,DE,12.9667,52.8167
16818,Rheinsberg Braunsberg,Brandenburg,BB,Deutschland,DE,12.8333,53.05
16818,Storbeck-Frankendorf,Brandenburg,BB,Deutschland,DE,12.7333,53.0067
16818,Fehrbellin Deutschhof,Brandenburg,BB,Deutschland,DE,12.8167,52.7
16818,Fehrbellin Wustrau-Altfriesack,Brandenburg,BB,Deutschland,DE,12.8733,52.85
16827,Alt Ruppin,Brandenburg,BB,Deutschland,DE,12.848,52.9483
16831,Rheinsberg Heinrichsdorf,Brandenburg,BB,Deutschland,DE,12.95,53.05
16831,Rheinsberg Zühlen,Brandenburg,BB,Deutschland,DE,12.8167,53.0833
16831,Rheinsberg Schwanow,Brandenburg,BB,Deutschland,DE,12.8667,53.05
16831,Rheinsberg Zechlinerhütte,Brandenburg,BB,Deutschland,DE,12.8833,53.15
16831,Rheinsberg Großzerlang,Brandenburg,BB,Deutschland,DE,12.95,53.1833
16831,Rheinsberg Linow,Brandenburg,BB,Deutschland,DE,12.8333,53.1
16831,Rheinsberg Kleinzerlang,Brandenburg,BB,Deutschland,DE,12.9167,53.1833
16831,Rheinsberg,Brandenburg,BB,Deutschland,DE,12.8989,53.0997
16831,Rheinsberg Zechow,Brandenburg,BB,Deutschland,DE,12.9167,53.05
16833,Fehrbellin Betzin,Brandenburg,BB,Deutschland,DE,12.7667,52.7667
16833,Fehrbellin Lentzke,Brandenburg,BB,Deutschland,DE,12.7,52.8
16833,Fehrbellin Brunne,Brandenburg,BB,Deutschland,DE,12.7333,52.7667
16833,Fehrbellin Hakenberg,Brandenburg,BB,Deutschland,DE,12.8333,52.7833
16833,Fehrbellin Linum,Brandenburg,BB,Deutschland,DE,12.7813,52.7815
16833,Fehrbellin Walchow,Brandenburg,BB,Deutschland,DE,12.7667,52.85
16833,Fehrbellin Tarmow,Brandenburg,BB,Deutschland,DE,12.8,52.8
16833,Fehrbellin Karwesee,Brandenburg,BB,Deutschland,DE,12.7833,52.75
16833,Fehrbellin Königshorst,Brandenburg,BB,Deutschland,DE,12.8,52.7167
16833,Fehrbellin,Brandenburg,BB,Deutschland,DE,12.7644,52.8135
16833,Fehrbellin Dechtow,Brandenburg,BB,Deutschland,DE,12.8167,52.75
16833,Fehrbellin Protzen,Brandenburg,BB,Deutschland,DE,12.7333,52.85
16835,Lindow (Mark) Schönberg (Mark),Brandenburg,BB,Deutschland,DE,12.9667,52.9333
16835,Rüthnick,Brandenburg,BB,Deutschland,DE,12.9965,52.8812
16835,Herzberg,Brandenburg,BB,Deutschland,DE,12.9698,52.9027
16835,Lindow (Mark) Hindenberg,Brandenburg,BB,Deutschland,DE,13,53.0333
16835,Seebeck-Strubensee,Brandenburg,BB,Deutschland,DE,13.0207,52.9395
16835,Vielitz,Brandenburg,BB,Deutschland,DE,13.0161,52.9338
16835,Lindow (Mark),Brandenburg,BB,Deutschland,DE,12.9869,52.9748
16835,Rheinsberg Dierberg,Brandenburg,BB,Deutschland,DE,12.9667,53.0333
16837,Rheinsberg Kagar,Brandenburg,BB,Deutschland,DE,12.8167,53.1333
16837,Rheinsberg Flecken Zechlin,Brandenburg,BB,Deutschland,DE,12.7667,53.15
16837,Rheinsberg Luhme,Brandenburg,BB,Deutschland,DE,12.8333,53.1833
16837,Rheinsberg Dorf Zechlin,Brandenburg,BB,Deutschland,DE,12.7667,53.1333
16837,Rheinsberg Wallitz,Brandenburg,BB,Deutschland,DE,12.7667,53.1167
16837,Wittstock/Dosse Zempow,Brandenburg,BB,Deutschland,DE,12.7333,53.2167
16845,Großderschau,Brandenburg,BB,Deutschland,DE,12.3682,52.7906
16845,Sieversdorf-Hohenofen,Brandenburg,BB,Deutschland,DE,12.4083,52.825
16845,Temnitztal,Brandenburg,BB,Deutschland,DE,12.6367,52.8567
16845,Kyritz Holzhausen,Brandenburg,BB,Deutschland,DE,12.35,52.9167
16845,Temnitztal Garz,Brandenburg,BB,Deutschland,DE,12.6333,52.85
16845,Stüdenitz-Schönermark,Brandenburg,BB,Deutschland,DE,12.3,52.8917
16845,Neustadt (Dosse),Brandenburg,BB,Deutschland,DE,12.4492,52.8528
16845,Dreetz,Brandenburg,BB,Deutschland,DE,12.4596,52.803
16845,Fehrbellin Manker,Brandenburg,BB,Deutschland,DE,12.6667,52.85
16845,Breddin,Brandenburg,BB,Deutschland,DE,12.2237,52.8856
16845,Märkisch Linden,Brandenburg,BB,Deutschland,DE,12.7083,52.9292
16845,Temnitztal Wildberg,Brandenburg,BB,Deutschland,DE,12.6278,52.8775
16845,Zernitz-Lohm,Brandenburg,BB,Deutschland,DE,12.3417,52.875
16866,Barenthin,Brandenburg,BB,Deutschland,DE,12.234,52.9236
16866,Vehlow,Brandenburg,BB,Deutschland,DE,12.3192,53.0123
16866,Gumtow,Brandenburg,BB,Deutschland,DE,12.25,52.9833
16866,Kunow,Brandenburg,BB,Deutschland,DE,12.133,52.995
16866,Dannenwalde,Brandenburg,BB,Deutschland,DE,12.2404,53.0266
16866,Groß Welle,Brandenburg,BB,Deutschland,DE,12.0841,53.012
16866,Schrepkow,Brandenburg,BB,Deutschland,DE,12.1107,52.9778
16866,Kolrep,Brandenburg,BB,Deutschland,DE,12.2863,53.0309
16866,Kyritz Drewen,Brandenburg,BB,Deutschland,DE,12.4,52.9833
16866,Döllen,Brandenburg,BB,Deutschland,DE,12.1854,52.9906
16866,Vehlin,Brandenburg,BB,Deutschland,DE,12.139,52.9569
16866,Kyritz Kötzlin,Brandenburg,BB,Deutschland,DE,12.2333,52.9
16866,Görike,Brandenburg,BB,Deutschland,DE,12.2013,52.9436
16866,Schönhagen,Brandenburg,BB,Deutschland,DE,12.1825,52.9623
16866,Rehfeld-Berlitt,Brandenburg,BB,Deutschland,DE,12.2917,52.95
16866,Demerthin,Brandenburg,BB,Deutschland,DE,12.2932,52.9743
16866,Wutike,Brandenburg,BB,Deutschland,DE,12.3748,53.0185
16866,Teetz-Ganz,Brandenburg,BB,Deutschland,DE,12.5083,53.025
16866,Kyritz,Brandenburg,BB,Deutschland,DE,12.3274,52.9808
16866,Granzow,Brandenburg,BB,Deutschland,DE,12.2504,52.9587
16866,Bork-Lellichow,Brandenburg,BB,Deutschland,DE,12.45,53.0333
16868,Wusterhausen (Dosse),Brandenburg,BB,Deutschland,DE,12.4667,52.8833
16909,Heiligengrabe Wernikow,Brandenburg,BB,Deutschland,DE,12.4333,53.2167
16909,Heiligengrabe Blesendorf,Brandenburg,BB,Deutschland,DE,12.3333,53.2
16909,Wittstock/Dosse Groß Haßlow,Brandenburg,BB,Deutschland,DE,12.55,53.1833
16909,Heiligengrabe Maulbeerwalde,Brandenburg,BB,Deutschland,DE,12.35,53.1833
16909,Heiligengrabe Liebenthal,Brandenburg,BB,Deutschland,DE,12.4,53.15
16909,Wittstock/Dosse Rossow,Brandenburg,BB,Deutschland,DE,12.5667,53.05
16909,Heiligengrabe Papenbruch,Brandenburg,BB,Deutschland,DE,12.4333,53.1333
16909,Wittstock/Dosse Schweinrich,Brandenburg,BB,Deutschland,DE,12.6333,53.1833
16909,Heiligengrabe,Brandenburg,BB,Deutschland,DE,12.3625,53.1446
16909,Wittstock/Dosse Niemerlang,Brandenburg,BB,Deutschland,DE,12.35,53.25
16909,Heiligengrabe Zaatzke,Brandenburg,BB,Deutschland,DE,12.4,53.1833
16909,Wittstock/Dosse Berlinchen,Brandenburg,BB,Deutschland,DE,12.5833,53.2167
16909,Heiligengrabe Blandikow,Brandenburg,BB,Deutschland,DE,12.3833,53.1167
16909,Wittstock/Dosse Gadow,Brandenburg,BB,Deutschland,DE,12.6167,53.1167
16909,Heiligengrabe Jabel,Brandenburg,BB,Deutschland,DE,12.4333,53.1667
16909,Wittstock/Dosse Dossow,Brandenburg,BB,Deutschland,DE,12.5333,53.1167
16909,Wittstock/Dosse Fretzdorf,Brandenburg,BB,Deutschland,DE,12.55,53.0667
16909,Wittstock/Dosse Wulfersdorf,Brandenburg,BB,Deutschland,DE,12.4333,53.25
16909,Wittstock/Dosse Dranse,Brandenburg,BB,Deutschland,DE,12.6167,53.2
16909,Wittstock/Dosse Herzsprung,Brandenburg,BB,Deutschland,DE,12.4667,53.0667
16909,Wittstock/Dosse,Brandenburg,BB,Deutschland,DE,12.487,53.1549
16909,Wittstock/Dosse Zootzen,Brandenburg,BB,Deutschland,DE,12.5833,53.1333
16909,Wittstock/Dosse Goldbeck,Brandenburg,BB,Deutschland,DE,12.5167,53.1333
16909,Wittstock/Dosse Christdorf,Brandenburg,BB,Deutschland,DE,12.4667,53.0833
16909,Wittstock/Dosse Sewekow,Brandenburg,BB,Deutschland,DE,12.65,53.25
16909,Wittstock/Dosse Königsberg,Brandenburg,BB,Deutschland,DE,12.4333,53.0667
16909,Heiligengrabe Grabow bei Blumenthal,Brandenburg,BB,Deutschland,DE,12.4,53.0833
16918,Wittstock/Dosse Freyenstein,Brandenburg,BB,Deutschland,DE,12.35,53.2833
16921,Alt Krüssow,Brandenburg,BB,Deutschland,DE,12.2667,53.15
16928,Falkenhagen,Brandenburg,BB,Deutschland,DE,12.2031,53.2065
16928,Kemnitz,Brandenburg,BB,Deutschland,DE,12.236,53.1394
16928,Steffenshagen,Brandenburg,BB,Deutschland,DE,12.1175,53.1985
16928,Alt Krüssow,Brandenburg,BB,Deutschland,DE,12.2667,53.15
16928,Heiligengrabe Blumenthal,Brandenburg,BB,Deutschland,DE,12.3667,53.0833
16928,Buchholz,Brandenburg,BB,Deutschland,DE,12.1835,53.1175
16928,Heiligengrabe Rosenwinkel,Brandenburg,BB,Deutschland,DE,12.3667,53.05
16928,Gerdshagen,Brandenburg,BB,Deutschland,DE,12.1981,53.2446
16928,Boddin-Langnow,Brandenburg,BB,Deutschland,DE,12.2778,53.1
16928,Tüchen,Brandenburg,BB,Deutschland,DE,12.0933,53.0621
16928,Pritzwalk,Brandenburg,BB,Deutschland,DE,12.1741,53.1494
16928,Vettin,Brandenburg,BB,Deutschland,DE,12.1706,53.0332
16928,Groß Pankow,Brandenburg,BB,Deutschland,DE,12.0497,53.1195
16928,Klein Woltersdorf,Brandenburg,BB,Deutschland,DE,12.1849,53.0754
16928,Hoppenrade,Brandenburg,BB,Deutschland,DE,12.0616,53.0365
16928,Schönebeck,Brandenburg,BB,Deutschland,DE,12.2331,53.0595
16928,Wilmersdorf,Brandenburg,BB,Deutschland,DE,12.3074,53.1622
16928,Helle,Brandenburg,BB,Deutschland,DE,12.0326,53.1679
16928,Groß Woltersdorf,Brandenburg,BB,Deutschland,DE,12.1506,53.0824
16928,Kuhbier,Brandenburg,BB,Deutschland,DE,12.0942,53.1484
16928,Lindenberg,Brandenburg,BB,Deutschland,DE,12.1291,53.0377
16928,Kehrberg,Brandenburg,BB,Deutschland,DE,12.1869,53.0474
16928,Kuhsdorf,Brandenburg,BB,Deutschland,DE,12.1072,53.1185
16928,Mesendorf,Brandenburg,BB,Deutschland,DE,12.1309,53.0953
16928,Sadenbeck,Brandenburg,BB,Deutschland,DE,12.2652,53.1866
16928,Beveringen,Brandenburg,BB,Deutschland,DE,12.2208,53.1507
16945,Kümmernitztal,Brandenburg,BB,Deutschland,DE,12.1583,53.2417
16945,Meyenburg,Brandenburg,BB,Deutschland,DE,12.2425,53.3133
16945,Marienfließ,Brandenburg,BB,Deutschland,DE,12.1233,53.32
16945,Halenbeck-Rohlsdorf,Brandenburg,BB,Deutschland,DE,12.28,53.2333
16949,Triglitz,Brandenburg,BB,Deutschland,DE,12.1,53.2167
16949,Putlitz,Brandenburg,BB,Deutschland,DE,12.0418,53.249
17268,Gerswalde,Brandenburg,BB,Deutschland,DE,13.7485,53.1699
17268,Grunewald,Brandenburg,BB,Deutschland,DE,13.4806,53.0235
17268,Vietmannsdorf,Brandenburg,BB,Deutschland,DE,13.5295,53.0502
17268,Gollin,Brandenburg,BB,Deutschland,DE,13.6032,53.049
17268,Mittenwalde,Brandenburg,BB,Deutschland,DE,13.6667,53.1833
17268,Röddelin,Brandenburg,BB,Deutschland,DE,13.4442,53.1017
17268,Hammelspring,Brandenburg,BB,Deutschland,DE,13.4319,53.0714
17268,Densow,Brandenburg,BB,Deutschland,DE,13.3779,53.1453
17268,Klosterwalde,Brandenburg,BB,Deutschland,DE,13.5617,53.1711
17268,Storkow,Brandenburg,BB,Deutschland,DE,13.4424,53.047
17268,Petznick,Brandenburg,BB,Deutschland,DE,13.6253,53.1621
17268,Herzfelde,Brandenburg,BB,Deutschland,DE,13.6031,53.1975
17268,Temmen-Ringenwalde,Brandenburg,BB,Deutschland,DE,13.7417,53.08
17268,Milmersdorf,Brandenburg,BB,Deutschland,DE,13.6415,53.1119
17268,Boitzenburger Land,Brandenburg,BB,Deutschland,DE,13.5867,53.255
17268,Groß Dölln,Brandenburg,BB,Deutschland,DE,13.5255,52.9928
17268,Flieth-Stegelitz,Brandenburg,BB,Deutschland,DE,13.8333,53.1417
17268,Templin,Brandenburg,BB,Deutschland,DE,13.5455,53.1262
17268,Gandenitz,Brandenburg,BB,Deutschland,DE,13.4409,53.1735
17268,Beutel,Brandenburg,BB,Deutschland,DE,13.3889,53.1138
17279,Lychen,Brandenburg,BB,Deutschland,DE,13.3148,53.2124
17291,Göritz,Brandenburg,BB,Deutschland,DE,13.9156,53.4063
17291,Schenkenberg,Brandenburg,BB,Deutschland,DE,13.95,53.3667
17291,Oberuckersee,Brandenburg,BB,Deutschland,DE,13.8875,53.2125
17291,Schönfeld,Brandenburg,BB,Deutschland,DE,13.9857,53.4136
17291,Uckerfelde,Brandenburg,BB,Deutschland,DE,13.9667,53.2583
17291,Grünow,Brandenburg,BB,Deutschland,DE,13.95,53.3167
17291,Prenzlau,Brandenburg,BB,Deutschland,DE,13.8626,53.3162
17291,Carmzow-Wallmow,Brandenburg,BB,Deutschland,DE,14.068,53.3667
17291,Gramzow,Brandenburg,BB,Deutschland,DE,14.0075,53.2125
17291,Randowtal,Brandenburg,BB,Deutschland,DE,14.0556,53.3056
17291,Nordwestuckermark,Brandenburg,BB,Deutschland,DE,13.6046,53.2697
17326,Brüssow,Brandenburg,BB,Deutschland,DE,14.1253,53.3997
17337,Uckerland,Brandenburg,BB,Deutschland,DE,13.7806,53.4569
19309,Lenzen (Elbe),Brandenburg,BB,Deutschland,DE,11.4833,53.0833
19309,Besandten,Brandenburg,BB,Deutschland,DE,11.2931,53.0895
19309,Eldenburg,Brandenburg,BB,Deutschland,DE,11.4387,53.1142
19309,Lanz,Brandenburg,BB,Deutschland,DE,11.5991,53.0744
19309,Wootz,Brandenburg,BB,Deutschland,DE,11.3535,53.0663
19309,Mellen,Brandenburg,BB,Deutschland,DE,11.589,53.1532
19322,Wittenberge,Brandenburg,BB,Deutschland,DE,11.7503,53.0054
19322,Groß Breese,Brandenburg,BB,Deutschland,DE,11.8232,53.0051
19322,Breese,Brandenburg,BB,Deutschland,DE,11.8,53
19322,Rühstädt,Brandenburg,BB,Deutschland,DE,11.8667,52.9167
19322,Weisen,Brandenburg,BB,Deutschland,DE,11.7871,53.0252
19322,Cumlosen,Brandenburg,BB,Deutschland,DE,11.6667,53.0333
19336,Viesecke,Brandenburg,BB,Deutschland,DE,12.0278,53.0134
19336,Legde/Quitzöbel,Brandenburg,BB,Deutschland,DE,11.9778,52.9111
19336,Kletzke,Brandenburg,BB,Deutschland,DE,12.0554,52.9962
19336,Bad Wilsnack,Brandenburg,BB,Deutschland,DE,11.949,52.9561
19339,Bendelin,Brandenburg,BB,Deutschland,DE,12.1689,52.91
19339,Netzow,Brandenburg,BB,Deutschland,DE,12.1385,52.9216
19339,Glöwen,Brandenburg,BB,Deutschland,DE,12.0855,52.9142
19348,Baek,Brandenburg,BB,Deutschland,DE,11.9164,53.1633
19348,Krampfer,Brandenburg,BB,Deutschland,DE,12.0191,53.0597
19348,Wolfshagen,Brandenburg,BB,Deutschland,DE,12.0114,53.1482
19348,Perleberg,Brandenburg,BB,Deutschland,DE,11.8574,53.0758
19348,Pirow,Brandenburg,BB,Deutschland,DE,11.9,53.2167
19348,Kleinow,Brandenburg,BB,Deutschland,DE,11.958,53.0525
19348,Klein Gottschow,Brandenburg,BB,Deutschland,DE,12.0039,53.097
19348,Nebelin,Brandenburg,BB,Deutschland,DE,11.7226,53.1089
19348,Gülitz-Reetz,Brandenburg,BB,Deutschland,DE,11.9278,53.1889
19348,Retzin,Brandenburg,BB,Deutschland,DE,11.9948,53.1141
19348,Berge,Brandenburg,BB,Deutschland,DE,11.8667,53.2333
19357,Mankmuß,Brandenburg,BB,Deutschland,DE,11.6664,53.1315
19357,Pröttlin,Brandenburg,BB,Deutschland,DE,11.5785,53.197
19357,Karstädt,Brandenburg,BB,Deutschland,DE,11.7424,53.1622
19357,Boberow,Brandenburg,BB,Deutschland,DE,11.6146,53.146
19357,Garlin,Brandenburg,BB,Deutschland,DE,11.6788,53.1843
10115,Berlin,Berlin,BE,Deutschland,DE,13.3846,52.5323
10117,Berlin,Berlin,BE,Deutschland,DE,13.3872,52.517
10119,Berlin,Berlin,BE,Deutschland,DE,13.4053,52.5305
10178,Berlin,Berlin,BE,Deutschland,DE,13.4096,52.5213
10179,Berlin,Berlin,BE,Deutschland,DE,13.4164,52.5122
10243,Berlin Friedrichshain,Berlin,BE,Deutschland,DE,13.4394,52.5123
10245,Berlin Friedrichshain,Berlin,BE,Deutschland,DE,13.4647,52.5007
10247,Berlin Friedrichshain,Berlin,BE,Deutschland,DE,13.4656,52.5161
10249,Berlin Friedrichshain,Berlin,BE,Deutschland,DE,13.4428,52.5238
10315,Berlin,Berlin,BE,Deutschland,DE,13.5148,52.5132
10317,Berlin,Berlin,BE,Deutschland,DE,13.4908,52.4979
10318,Berlin,Berlin,BE,Deutschland,DE,13.5287,52.4835
10319,Berlin,Berlin,BE,Deutschland,DE,13.5188,52.4992
10365,Berlin,Berlin,BE,Deutschland,DE,13.4969,52.5206
10367,Berlin,Berlin,BE,Deutschland,DE,13.4821,52.5246
10369,Berlin,Berlin,BE,Deutschland,DE,13.4695,52.5295
10405,Berlin,Berlin,BE,Deutschland,DE,13.4257,52.5352
10407,Berlin,Berlin,BE,Deutschland,DE,13.4492,52.5336
10409,Berlin,Berlin,BE,Deutschland,DE,13.4414,52.5443
10435,Berlin,Berlin,BE,Deutschland,DE,13.4112,52.5378
10437,Berlin,Berlin,BE,Deutschland,DE,13.4126,52.5449
10439,Berlin,Berlin,BE,Deutschland,DE,13.4121,52.5522
10551,Berlin,Berlin,BE,Deutschland,DE,13.3372,52.5307
10553,Berlin,Berlin,BE,Deutschland,DE,13.3215,52.5305
10555,Berlin,Berlin,BE,Deutschland,DE,13.3355,52.5215
10557,Berlin,Berlin,BE,Deutschland,DE,13.3594,52.5233
10559,Berlin,Berlin,BE,Deutschland,DE,13.3499,52.5301
10585,Berlin,Berlin,BE,Deutschland,DE,13.3057,52.5152
10587,Berlin,Berlin,BE,Deutschland,DE,13.3195,52.5184
10589,Berlin,Berlin,BE,Deutschland,DE,13.3057,52.5276
10623,Berlin,Berlin,BE,Deutschland,DE,13.3274,52.5088
10625,Berlin,Berlin,BE,Deutschland,DE,13.3147,52.5095
10627,Berlin,Berlin,BE,Deutschland,DE,13.303,52.508
10629,Berlin,Berlin,BE,Deutschland,DE,13.3086,52.5028
10707,Berlin,Berlin,BE,Deutschland,DE,13.3138,52.4967
10709,Berlin,Berlin,BE,Deutschland,DE,13.3031,52.4939
10711,Berlin,Berlin,BE,Deutschland,DE,13.2905,52.4981
10713,Berlin,Berlin,BE,Deutschland,DE,13.3133,52.4851
10715,Berlin,Berlin,BE,Deutschland,DE,13.3289,52.4824
10717,Berlin,Berlin,BE,Deutschland,DE,13.3275,52.4908
10719,Berlin,Berlin,BE,Deutschland,DE,13.3257,52.4988
10777,Berlin,Berlin,BE,Deutschland,DE,13.3427,52.4975
10779,Berlin,Berlin,BE,Deutschland,DE,13.3395,52.4921
10781,Berlin,Berlin,BE,Deutschland,DE,13.3529,52.4936
10783,Berlin,Berlin,BE,Deutschland,DE,13.3624,52.4964
10785,Berlin,Berlin,BE,Deutschland,DE,13.3643,52.5073
10787,Berlin,Berlin,BE,Deutschland,DE,13.3439,52.5078
10789,Berlin,Berlin,BE,Deutschland,DE,13.3377,52.5017
10823,Berlin,Berlin,BE,Deutschland,DE,13.3509,52.4873
10825,Berlin,Berlin,BE,Deutschland,DE,13.3413,52.4838
10827,Berlin,Berlin,BE,Deutschland,DE,13.3543,52.4838
10829,Berlin,Berlin,BE,Deutschland,DE,13.3607,52.4761
10961,Berlin Kreuzberg,Berlin,BE,Deutschland,DE,13.3975,52.4926
10963,Berlin Kreuzberg,Berlin,BE,Deutschland,DE,13.3813,52.5003
10965,Berlin Kreuzberg,Berlin,BE,Deutschland,DE,13.3946,52.4855
10967,Berlin Kreuzberg,Berlin,BE,Deutschland,DE,13.4164,52.4905
10969,Berlin Kreuzberg,Berlin,BE,Deutschland,DE,13.4012,52.5025
10997,Berlin Kreuzberg,Berlin,BE,Deutschland,DE,13.4356,52.5009
10999,Berlin Kreuzberg,Berlin,BE,Deutschland,DE,13.4266,52.4969
11011,Berlin,Berlin,BE,Deutschland,DE,13.3759,52.5179
12043,Berlin,Berlin,BE,Deutschland,DE,13.4371,52.4799
12045,Berlin,Berlin,BE,Deutschland,DE,13.4392,52.4855
12047,Berlin,Berlin,BE,Deutschland,DE,13.4285,52.4905
12049,Berlin,Berlin,BE,Deutschland,DE,13.422,52.4764
12051,Berlin,Berlin,BE,Deutschland,DE,13.4298,52.4669
12053,Berlin,Berlin,BE,Deutschland,DE,13.4325,52.4768
12055,Berlin,Berlin,BE,Deutschland,DE,13.4486,52.4712
12057,Berlin,Berlin,BE,Deutschland,DE,13.4633,52.4684
12059,Berlin,Berlin,BE,Deutschland,DE,13.4513,52.4809
12099,Berlin,Berlin,BE,Deutschland,DE,13.4023,52.4644
12101,Berlin,Berlin,BE,Deutschland,DE,13.3791,52.4785
12103,Berlin,Berlin,BE,Deutschland,DE,13.3747,52.4641
12105,Berlin,Berlin,BE,Deutschland,DE,13.3714,52.4492
12107,Berlin,Berlin,BE,Deutschland,DE,13.3917,52.4312
12109,Berlin,Berlin,BE,Deutschland,DE,13.3993,52.4465
12157,Berlin,Berlin,BE,Deutschland,DE,13.3462,52.4653
12159,Berlin,Berlin,BE,Deutschland,DE,13.3369,52.4737
12161,Berlin,Berlin,BE,Deutschland,DE,13.327,52.4704
12163,Berlin,Berlin,BE,Deutschland,DE,13.3185,52.4626
12165,Berlin,Berlin,BE,Deutschland,DE,13.3148,52.4557
12167,Berlin,Berlin,BE,Deutschland,DE,13.3338,52.4486
12169,Berlin,Berlin,BE,Deutschland,DE,13.3435,52.4548
12203,Berlin,Berlin,BE,Deutschland,DE,13.3096,52.4444
12205,Berlin,Berlin,BE,Deutschland,DE,13.2945,52.434
12207,Berlin,Berlin,BE,Deutschland,DE,13.3133,52.4199
12209,Berlin,Berlin,BE,Deutschland,DE,13.3291,52.4179
12247,Berlin,Berlin,BE,Deutschland,DE,13.3462,52.4395
12249,Berlin,Berlin,BE,Deutschland,DE,13.3518,52.4264
12277,Berlin,Berlin,BE,Deutschland,DE,13.375,52.4134
12279,Berlin,Berlin,BE,Deutschland,DE,13.3531,52.4106
12305,Berlin,Berlin,BE,Deutschland,DE,13.4021,52.4033
12307,Berlin,Berlin,BE,Deutschland,DE,13.3907,52.3886
12309,Berlin,Berlin,BE,Deutschland,DE,13.4171,52.3905
12347,Berlin,Berlin,BE,Deutschland,DE,13.4281,52.4509
12349,Berlin,Berlin,BE,Deutschland,DE,13.4221,52.4253
12351,Berlin,Berlin,BE,Deutschland,DE,13.4555,52.4328
12353,Berlin,Berlin,BE,Deutschland,DE,13.4589,52.4227
12355,Berlin,Berlin,BE,Deutschland,DE,13.4978,52.411
12357,Berlin,Berlin,BE,Deutschland,DE,13.4905,52.4293
12359,Berlin,Berlin,BE,Deutschland,DE,13.4531,52.4473
12435,Berlin,Berlin,BE,Deutschland,DE,13.4672,52.4866
12437,Berlin,Berlin,BE,Deutschland,DE,13.4817,52.4624
12439,Berlin,Berlin,BE,Deutschland,DE,13.5286,52.4528
12459,Berlin,Berlin,BE,Deutschland,DE,13.528,52.4656
12487,Berlin,Berlin,BE,Deutschland,DE,13.5052,52.4437
12489,Berlin,Berlin,BE,Deutschland,DE,13.5432,52.4356
12524,Berlin,Berlin,BE,Deutschland,DE,13.5417,52.4128
12526,Berlin,Berlin,BE,Deutschland,DE,13.5642,52.3976
12527,Berlin,Berlin,BE,Deutschland,DE,13.6339,52.3856
12529,Berlin,Berlin,BE,Deutschland,DE,13.4,52.5167
12555,Berlin,Berlin,BE,Deutschland,DE,13.5791,52.4627
12557,Berlin,Berlin,BE,Deutschland,DE,13.592,52.4303
12559,Berlin,Berlin,BE,Deutschland,DE,13.6634,52.4149
12587,Berlin,Berlin,BE,Deutschland,DE,13.6362,52.4586
12589,Berlin,Berlin,BE,Deutschland,DE,13.7034,52.4438
12619,Berlin,Berlin,BE,Deutschland,DE,13.5883,52.5235
12621,Berlin,Berlin,BE,Deutschland,DE,13.5878,52.5027
12623,Berlin,Berlin,BE,Deutschland,DE,13.6165,52.5026
12627,Berlin,Berlin,BE,Deutschland,DE,13.6135,52.5372
12629,Berlin,Berlin,BE,Deutschland,DE,13.5901,52.5413
12679,Berlin,Berlin,BE,Deutschland,DE,13.566,52.5501
12681,Berlin,Berlin,BE,Deutschland,DE,13.5367,52.5369
12683,Berlin,Berlin,BE,Deutschland,DE,13.5591,52.5075
12685,Berlin,Berlin,BE,Deutschland,DE,13.565,52.5391
12687,Berlin,Berlin,BE,Deutschland,DE,13.5645,52.5564
12689,Berlin,Berlin,BE,Deutschland,DE,13.5675,52.5665
13047,Reinickendorf,Berlin,BE,Deutschland,DE,13.3333,52.5667
13051,Berlin,Berlin,BE,Deutschland,DE,13.4908,52.5815
13053,Berlin,Berlin,BE,Deutschland,DE,13.5046,52.55
13055,Berlin,Berlin,BE,Deutschland,DE,13.496,52.5401
13057,Berlin,Berlin,BE,Deutschland,DE,13.5415,52.5711
13059,Berlin,Berlin,BE,Deutschland,DE,13.5217,52.5809
13086,Berlin,Berlin,BE,Deutschland,DE,13.4482,52.5565
13088,Berlin,Berlin,BE,Deutschland,DE,13.4708,52.5603
13089,Berlin,Berlin,BE,Deutschland,DE,13.441,52.5707
13125,Berlin,Berlin,BE,Deutschland,DE,13.4829,52.6329
13127,Berlin,Berlin,BE,Deutschland,DE,13.438,52.62
13129,Berlin,Berlin,BE,Deutschland,DE,13.4579,52.5921
13156,Berlin,Berlin,BE,Deutschland,DE,13.3997,52.5824
13158,Berlin,Berlin,BE,Deutschland,DE,13.3835,52.5932
13159,Berlin,Berlin,BE,Deutschland,DE,13.3978,52.623
13187,Berlin,Berlin,BE,Deutschland,DE,13.4084,52.5695
13189,Berlin,Berlin,BE,Deutschland,DE,13.4219,52.5643
13347,Berlin,Berlin,BE,Deutschland,DE,13.3655,52.5491
13349,Berlin,Berlin,BE,Deutschland,DE,13.3473,52.558
13351,Berlin,Berlin,BE,Deutschland,DE,13.3328,52.5507
13353,Berlin,Berlin,BE,Deutschland,DE,13.3495,52.5416
13355,Berlin,Berlin,BE,Deutschland,DE,13.3904,52.5416
13357,Berlin,Berlin,BE,Deutschland,DE,13.3828,52.5502
13359,Berlin,Berlin,BE,Deutschland,DE,13.3851,52.5599
13403,Berlin,Berlin,BE,Deutschland,DE,13.3224,52.5739
13405,Berlin,Berlin,BE,Deutschland,DE,13.2967,52.5596
13407,Berlin,Berlin,BE,Deutschland,DE,13.3512,52.5727
13409,Berlin,Berlin,BE,Deutschland,DE,13.3714,52.5679
13435,Berlin,Berlin,BE,Deutschland,DE,13.3456,52.602
13437,Berlin,Berlin,BE,Deutschland,DE,13.3284,52.5905
13439,Berlin,Berlin,BE,Deutschland,DE,13.3584,52.5976
13465,Berlin,Berlin,BE,Deutschland,DE,13.2896,52.6399
13467,Berlin,Berlin,BE,Deutschland,DE,13.3075,52.6171
13469,Berlin,Berlin,BE,Deutschland,DE,13.3422,52.6119
13503,Berlin,Berlin,BE,Deutschland,DE,13.2488,52.6122
13505,Berlin,Berlin,BE,Deutschland,DE,13.2404,52.5839
13507,Berlin,Berlin,BE,Deutschland,DE,13.2717,52.5765
13509,Berlin,Berlin,BE,Deutschland,DE,13.3006,52.5892
13581,Berlin,Berlin,BE,Deutschland,DE,13.1794,52.531
13583,Berlin,Berlin,BE,Deutschland,DE,13.1824,52.5437
13585,Berlin,Berlin,BE,Deutschland,DE,13.2049,52.5477
13587,Berlin,Berlin,BE,Deutschland,DE,13.1854,52.5767
13589,Berlin,Berlin,BE,Deutschland,DE,13.1676,52.557
13591,Berlin,Berlin,BE,Deutschland,DE,13.1405,52.5345
13593,Berlin,Berlin,BE,Deutschland,DE,13.1672,52.5148
13595,Berlin,Berlin,BE,Deutschland,DE,13.1962,52.5116
13597,Berlin,Berlin,BE,Deutschland,DE,13.2195,52.5272
13599,Berlin,Berlin,BE,Deutschland,DE,13.235,52.5463
13627,Berlin,Berlin,BE,Deutschland,DE,13.2991,52.5398
13629,Berlin,Berlin,BE,Deutschland,DE,13.2661,52.5422
14050,Berlin,Berlin,BE,Deutschland,DE,13.2683,52.5208
14052,Berlin,Berlin,BE,Deutschland,DE,13.2569,52.5156
14053,Berlin,Berlin,BE,Deutschland,DE,13.2387,52.5159
14055,Berlin,Berlin,BE,Deutschland,DE,13.2447,52.502
14057,Berlin,Berlin,BE,Deutschland,DE,13.2879,52.5073
14059,Berlin,Berlin,BE,Deutschland,DE,13.2878,52.5205
14089,Berlin,Berlin,BE,Deutschland,DE,13.1516,52.4708
14109,Berlin,Berlin,BE,Deutschland,DE,13.144,52.4197
14129,Berlin,Berlin,BE,Deutschland,DE,13.2026,52.4463
14131,Berlin,Berlin,BE,Deutschland,DE,13.4,52.517
14163,Berlin,Berlin,BE,Deutschland,DE,13.2385,52.4368
14165,Berlin,Berlin,BE,Deutschland,DE,13.2536,52.4175
14167,Berlin,Berlin,BE,Deutschland,DE,13.2765,52.4212
14169,Berlin,Berlin,BE,Deutschland,DE,13.2573,52.4496
14193,Berlin,Berlin,BE,Deutschland,DE,13.2365,52.4831
14195,Berlin,Berlin,BE,Deutschland,DE,13.2829,52.4589
14197,Berlin,Berlin,BE,Deutschland,DE,13.3118,52.4734
14199,Berlin,Berlin,BE,Deutschland,DE,13.2951,52.4777
15537,Gosen,Berlin,BE,Deutschland,DE,13.7167,52.4
70173,Stuttgart Stuttgart-Mitte,Baden-Württemberg,BW,Deutschland,DE,9.1767,48.7786
70173,Stuttgart,Baden-Württemberg,BW,Deutschland,DE,9.1833,48.7667
70174,Stuttgart Stuttgart-Mitte,Baden-Württemberg,BW,Deutschland,DE,9.172,48.7827
70174,Stuttgart,Baden-Württemberg,BW,Deutschland,DE,9.1833,48.7667
70174,Stuttgart Stuttgart-Nord,Baden-Württemberg,BW,Deutschland,DE,9.1921,48.7978
70176,Stuttgart,Baden-Württemberg,BW,Deutschland,DE,9.1833,48.7667
70176,Stuttgart Stuttgart-Mitte,Baden-Württemberg,BW,Deutschland,DE,9.1585,48.7752
70176,Stuttgart Stuttgart-West,Baden-Württemberg,BW,Deutschland,DE,9.1641,48.7736
70178,Stuttgart,Baden-Württemberg,BW,Deutschland,DE,9.1833,48.7667
70178,Stuttgart Stuttgart-West,Baden-Württemberg,BW,Deutschland,DE,9.1641,48.7736
70178,Stuttgart Stuttgart-Süd,Baden-Württemberg,BW,Deutschland,DE,9.1678,48.7644
70178,Stuttgart Stuttgart-Mitte,Baden-Württemberg,BW,Deutschland,DE,9.1731,48.7728
70180,Stuttgart,Baden-Württemberg,BW,Deutschland,DE,9.1833,48.7667
70180,Stuttgart Stuttgart-Süd,Baden-Württemberg,BW,Deutschland,DE,9.1678,48.7644
70180,Stuttgart Stuttgart-Mitte,Baden-Württemberg,BW,Deutschland,DE,9.1762,48.7649
70182,Stuttgart,Baden-Württemberg,BW,Deutschland,DE,9.1833,48.7667
70182,Stuttgart Stuttgart-Mitte,Baden-Württemberg,BW,Deutschland,DE,9.1821,48.7745
70184,Stuttgart Stuttgart-Ost,Baden-Württemberg,BW,Deutschland,DE,9.2079,48.7819
70184,Stuttgart Frauenkopf,Baden-Württemberg,BW,Deutschland,DE,9.2218,48.7607
70184,Stuttgart,Baden-Württemberg,BW,Deutschland,DE,9.1833,48.7667
70184,Stuttgart Stuttgart-Süd,Baden-Württemberg,BW,Deutschland,DE,9.1678,48.7644
70184,Stuttgart Stuttgart-Mitte,Baden-Württemberg,BW,Deutschland,DE,9.1798,48.7759
70186,Stuttgart,Baden-Württemberg,BW,Deutschland,DE,9.1833,48.7667
70186,Stuttgart Stuttgart-Ost,Baden-Württemberg,BW,Deutschland,DE,9.2042,48.7718
70188,Stuttgart,Baden-Württemberg,BW,Deutschland,DE,9.1833,48.7667
70188,Stuttgart Stuttgart-Mitte,Baden-Württemberg,BW,Deutschland,DE,9.2112,48.7835
70188,Stuttgart Stuttgart-Ost,Baden-Württemberg,BW,Deutschland,DE,9.2079,48.7819
70190,Stuttgart,Baden-Württemberg,BW,Deutschland,DE,9.1833,48.7667
70190,Stuttgart Stuttgart-Mitte,Baden-Württemberg,BW,Deutschland,DE,9.2019,48.7887
70190,Stuttgart Stuttgart-Ost,Baden-Württemberg,BW,Deutschland,DE,9.2079,48.7819
70191,Stuttgart,Baden-Württemberg,BW,Deutschland,DE,9.1833,48.7667
70191,Stuttgart Bad Cannstatt,Baden-Württemberg,BW,Deutschland,DE,9.2141,48.8056
70191,Stuttgart Stuttgart-Nord,Baden-Württemberg,BW,Deutschland,DE,9.1823,48.7974
70192,Stuttgart Feuerbach,Baden-Württemberg,BW,Deutschland,DE,9.1588,48.8113
70192,Stuttgart Stuttgart-Nord,Baden-Württemberg,BW,Deutschland,DE,9.1921,48.7978
70192,Stuttgart,Baden-Württemberg,BW,Deutschland,DE,9.1833,48.7667
70193,Stuttgart Stuttgart-Nord,Baden-Württemberg,BW,Deutschland,DE,9.1557,48.7784
70193,Stuttgart,Baden-Württemberg,BW,Deutschland,DE,9.1833,48.7667
70193,Stuttgart Stuttgart-West,Baden-Württemberg,BW,Deutschland,DE,9.1641,48.7736
70195,Stuttgart,Baden-Württemberg,BW,Deutschland,DE,9.1833,48.7667
70195,Stuttgart Botnang,Baden-Württemberg,BW,Deutschland,DE,9.1304,48.7762
70197,Stuttgart,Baden-Württemberg,BW,Deutschland,DE,9.1833,48.7667
70197,Stuttgart Stuttgart-West,Baden-Württemberg,BW,Deutschland,DE,9.1485,48.767
70199,Stuttgart,Baden-Württemberg,BW,Deutschland,DE,9.1833,48.7667
70199,Stuttgart Stuttgart-West,Baden-Württemberg,BW,Deutschland,DE,9.1509,48.7582
70199,Stuttgart Stuttgart-Süd,Baden-Württemberg,BW,Deutschland,DE,9.1678,48.7644
70327,Stuttgart,Baden-Württemberg,BW,Deutschland,DE,9.1833,48.7667
70327,Stuttgart Rotenberg,Baden-Württemberg,BW,Deutschland,DE,9.2715,48.7833
70327,Stuttgart Stuttgart-Ost,Baden-Württemberg,BW,Deutschland,DE,9.2444,48.7726
70327,Stuttgart Wangen,Baden-Württemberg,BW,Deutschland,DE,9.2478,48.7687
70327,Stuttgart Untertürkheim,Baden-Württemberg,BW,Deutschland,DE,9.2509,48.7802
70327,Stuttgart Luginsland,Baden-Württemberg,BW,Deutschland,DE,9.2579,48.7931
70327,Stuttgart Hedelfingen,Baden-Württemberg,BW,Deutschland,DE,9.2557,48.7586
70329,Stuttgart,Baden-Württemberg,BW,Deutschland,DE,9.1833,48.7667
70329,Stuttgart Rohracker,Baden-Württemberg,BW,Deutschland,DE,9.2619,48.7618
70329,Stuttgart Obertürkheim,Baden-Württemberg,BW,Deutschland,DE,9.2683,48.7646
70329,Stuttgart Uhlbach,Baden-Württemberg,BW,Deutschland,DE,9.2788,48.7762
70372,Stuttgart,Baden-Württemberg,BW,Deutschland,DE,9.2177,48.8026
70372,Stuttgart Bad Cannstatt,Baden-Württemberg,BW,Deutschland,DE,9.2141,48.8056
70374,Stuttgart,Baden-Württemberg,BW,Deutschland,DE,9.1833,48.7667
70374,Stuttgart Sommerrain,Baden-Württemberg,BW,Deutschland,DE,9.2367,48.8106
70374,Stuttgart Bad Cannstatt,Baden-Württemberg,BW,Deutschland,DE,9.2141,48.8056
70376,Stuttgart,Baden-Württemberg,BW,Deutschland,DE,9.1833,48.7667
70376,Stuttgart Münster,Baden-Württemberg,BW,Deutschland,DE,9.22,48.8213
70376,Stuttgart Burgholzhof,Baden-Württemberg,BW,Deutschland,DE,9.2125,48.8137
70376,Stuttgart Bad Cannstatt,Baden-Württemberg,BW,Deutschland,DE,9.2141,48.8056
70378,Stuttgart,Baden-Württemberg,BW,Deutschland,DE,9.227,48.837
70435,Stuttgart,Baden-Württemberg,BW,Deutschland,DE,9.1833,48.7667
70435,Stuttgart Zuffenhausen,Baden-Württemberg,BW,Deutschland,DE,9.1656,48.8334
70437,Stuttgart,Baden-Württemberg,BW,Deutschland,DE,9.1833,48.7667
70437,Stuttgart Zuffenhausen,Baden-Württemberg,BW,Deutschland,DE,9.1938,48.8353
70437,Stuttgart Zazenhausen,Baden-Württemberg,BW,Deutschland,DE,9.1928,48.8409
70437,Stuttgart Mönchfeld,Baden-Württemberg,BW,Deutschland,DE,9.2192,48.8424
70437,Stuttgart Rot,Baden-Württemberg,BW,Deutschland,DE,9.1927,48.8341
